%time,field.header.seq,field.header.stamp,field.header.frame_id,field.pose.pose.position.x,field.pose.pose.position.y,field.pose.pose.position.z,field.pose.pose.orientation.x,field.pose.pose.orientation.y,field.pose.pose.orientation.z,field.pose.pose.orientation.w,field.pose.covariance0,field.pose.covariance1,field.pose.covariance2,field.pose.covariance3,field.pose.covariance4,field.pose.covariance5,field.pose.covariance6,field.pose.covariance7,field.pose.covariance8,field.pose.covariance9,field.pose.covariance10,field.pose.covariance11,field.pose.covariance12,field.pose.covariance13,field.pose.covariance14,field.pose.covariance15,field.pose.covariance16,field.pose.covariance17,field.pose.covariance18,field.pose.covariance19,field.pose.covariance20,field.pose.covariance21,field.pose.covariance22,field.pose.covariance23,field.pose.covariance24,field.pose.covariance25,field.pose.covariance26,field.pose.covariance27,field.pose.covariance28,field.pose.covariance29,field.pose.covariance30,field.pose.covariance31,field.pose.covariance32,field.pose.covariance33,field.pose.covariance34,field.pose.covariance35
1663722021937128465,3663,1663722021885365695,odom,-1.14966913264,0.0,0.0,0.0,0.0,0.0,1.0,1.00008910522e-05,0.0,0.0,0.0,0.0,0.0,0.0,1.00008910522e-05,0.0,0.0,0.0,0.0,0.0,0.0,3664000000.0,0.0,0.0,0.0,0.0,0.0,0.0,3664000000.0,0.0,0.0,0.0,0.0,0.0,0.0,3664000000.0,0.0,0.0,0.0,0.0,0.0,0.0,10.0008002039
1663722022037136785,3664,1663722022005362797,odom,-1.14966913264,0.0,0.0,0.0,0.0,0.0,1.0,1.43992947415e-05,0.0,0.0,0.0,0.0,0.0,0.0,1.43992947415e-05,0.0,0.0,0.0,0.0,0.0,0.0,3665000000.0,0.0,0.0,0.0,0.0,0.0,0.0,3665000000.0,0.0,0.0,0.0,0.0,0.0,0.0,3665000000.0,0.0,0.0,0.0,0.0,0.0,0.0,14.3990971537
1663722022137091544,3665,1663722022085381476,odom,-1.14966913264,0.0,0.0,0.0,0.0,0.0,1.0,6.4029591158e-06,0.0,0.0,0.0,0.0,0.0,0.0,6.4029591158e-06,0.0,0.0,0.0,0.0,0.0,0.0,3666000000.0,0.0,0.0,0.0,0.0,0.0,0.0,3666000000.0,0.0,0.0,0.0,0.0,0.0,0.0,3666000000.0,0.0,0.0,0.0,0.0,0.0,0.0,6.4029479915
1663722022237104889,3666,1663722022225388666,odom,-1.14966913264,0.0,0.0,0.0,0.0,0.0,1.0,1.96021283045e-05,0.0,0.0,0.0,0.0,0.0,0.0,1.96021283045e-05,0.0,0.0,0.0,0.0,0.0,0.0,3667000000.0,0.0,0.0,0.0,0.0,0.0,0.0,3667000000.0,0.0,0.0,0.0,0.0,0.0,0.0,3667000000.0,0.0,0.0,0.0,0.0,0.0,0.0,19.6016290229
1663722022337134360,3667,1663722022305390829,odom,-1.14966913264,0.0,0.0,0.0,0.0,0.0,1.0,6.4002815634e-06,0.0,0.0,0.0,0.0,0.0,0.0,6.4002815634e-06,0.0,0.0,0.0,0.0,0.0,0.0,3668000000.0,0.0,0.0,0.0,0.0,0.0,0.0,3668000000.0,0.0,0.0,0.0,0.0,0.0,0.0,3668000000.0,0.0,0.0,0.0,0.0,0.0,0.0,6.40030512144
1663722022437297494,3668,1663722022385360658,odom,-1.14966913264,0.0,0.0,0.0,0.0,0.0,1.0,6.39527570456e-06,0.0,0.0,0.0,0.0,0.0,0.0,6.39527570456e-06,0.0,0.0,0.0,0.0,0.0,0.0,3669000000.0,0.0,0.0,0.0,0.0,0.0,0.0,3669000000.0,0.0,0.0,0.0,0.0,0.0,0.0,3669000000.0,0.0,0.0,0.0,0.0,0.0,0.0,6.39513265248
1663722022537153788,3669,1663722022525366392,odom,-1.14966913264,0.0,0.0,0.0,0.0,0.0,1.0,1.96016626433e-05,0.0,0.0,0.0,0.0,0.0,0.0,1.96016626433e-05,0.0,0.0,0.0,0.0,0.0,0.0,3670000000.0,0.0,0.0,0.0,0.0,0.0,0.0,3670000000.0,0.0,0.0,0.0,0.0,0.0,0.0,3670000000.0,0.0,0.0,0.0,0.0,0.0,0.0,19.6012213399
1663722022637106148,3670,1663722022605396301,odom,-1.14966913264,0.0,0.0,0.0,0.0,0.0,1.0,6.40482176095e-06,0.0,0.0,0.0,0.0,0.0,0.0,6.40482176095e-06,0.0,0.0,0.0,0.0,0.0,0.0,3671000000.0,0.0,0.0,0.0,0.0,0.0,0.0,3671000000.0,0.0,0.0,0.0,0.0,0.0,0.0,3671000000.0,0.0,0.0,0.0,0.0,0.0,0.0,6.40474531439
1663722022737047061,3671,1663722022685361573,odom,-1.14966913264,0.0,0.0,0.0,0.0,0.0,1.0,6.39457721263e-06,0.0,0.0,0.0,0.0,0.0,0.0,6.39457721263e-06,0.0,0.0,0.0,0.0,0.0,0.0,3672000000.0,0.0,0.0,0.0,0.0,0.0,0.0,3672000000.0,0.0,0.0,0.0,0.0,0.0,0.0,3672000000.0,0.0,0.0,0.0,0.0,0.0,0.0,6.39440383762
1663722022838243670,3672,1663722022825388239,odom,-1.14966913264,0.0,0.0,0.0,0.0,0.0,1.0,1.96074834093e-05,0.0,0.0,0.0,0.0,0.0,0.0,1.96074834093e-05,0.0,0.0,0.0,0.0,0.0,0.0,3673000000.0,0.0,0.0,0.0,0.0,0.0,0.0,3673000000.0,0.0,0.0,0.0,0.0,0.0,0.0,3673000000.0,0.0,0.0,0.0,0.0,0.0,0.0,19.6070827483
1663722022937139201,3673,1663722022905386563,odom,-1.14966913264,0.0,0.0,0.0,0.0,0.0,1.0,6.39969948679e-06,0.0,0.0,0.0,0.0,0.0,0.0,6.39969948679e-06,0.0,0.0,0.0,0.0,0.0,0.0,3674000000.0,0.0,0.0,0.0,0.0,0.0,0.0,3674000000.0,0.0,0.0,0.0,0.0,0.0,0.0,3674000000.0,0.0,0.0,0.0,0.0,0.0,0.0,6.39969088731
1663722023037077495,3674,1663722022985386268,odom,-1.14966913264,0.0,0.0,0.0,0.0,0.0,1.0,6.39993231744e-06,0.0,0.0,0.0,0.0,0.0,0.0,6.39993231744e-06,0.0,0.0,0.0,0.0,0.0,0.0,3675000000.0,0.0,0.0,0.0,0.0,0.0,0.0,3675000000.0,0.0,0.0,0.0,0.0,0.0,0.0,3675000000.0,0.0,0.0,0.0,0.0,0.0,0.0,6.39991184114
1663722023137115493,3675,1663722023125358852,odom,-1.14966913264,0.0,0.0,0.0,0.0,0.0,1.0,1.95923494175e-05,0.0,0.0,0.0,0.0,0.0,0.0,1.95923494175e-05,0.0,0.0,0.0,0.0,0.0,0.0,3676000000.0,0.0,0.0,0.0,0.0,0.0,0.0,3676000000.0,0.0,0.0,0.0,0.0,0.0,0.0,3676000000.0,0.0,0.0,0.0,0.0,0.0,0.0,19.5919404224
1663722023237167070,3676,1663722023205390929,odom,-1.14966913264,0.0,0.0,0.0,0.0,0.0,1.0,6.40517100692e-06,0.0,0.0,0.0,0.0,0.0,0.0,6.40517100692e-06,0.0,0.0,0.0,0.0,0.0,0.0,3677000000.0,0.0,0.0,0.0,0.0,0.0,0.0,3677000000.0,0.0,0.0,0.0,0.0,0.0,0.0,3677000000.0,0.0,0.0,0.0,0.0,0.0,0.0,6.40509232425
1663722023337162507,3677,1663722023285370830,odom,-1.14966913264,0.0,0.0,0.0,0.0,0.0,1.0,6.39678910375e-06,0.0,0.0,0.0,0.0,0.0,0.0,6.39678910375e-06,0.0,0.0,0.0,0.0,0.0,0.0,3678000000.0,0.0,0.0,0.0,0.0,0.0,0.0,3678000000.0,0.0,0.0,0.0,0.0,0.0,0.0,3678000000.0,0.0,0.0,0.0,0.0,0.0,0.0,6.39674364566
1663722023437101526,3678,1663722023425363333,odom,-1.14966913264,0.0,0.0,0.0,0.0,0.0,1.0,1.95978209376e-05,0.0,0.0,0.0,0.0,0.0,0.0,1.95978209376e-05,0.0,0.0,0.0,0.0,0.0,0.0,3679000000.0,0.0,0.0,0.0,0.0,0.0,0.0,3679000000.0,0.0,0.0,0.0,0.0,0.0,0.0,3679000000.0,0.0,0.0,0.0,0.0,0.0,0.0,19.5975168286
1663722023537317807,3679,1663722023505331522,odom,-1.14966913264,0.0,0.0,0.0,0.0,0.0,1.0,6.3949264586e-06,0.0,0.0,0.0,0.0,0.0,0.0,6.3949264586e-06,0.0,0.0,0.0,0.0,0.0,0.0,3680000000.0,0.0,0.0,0.0,0.0,0.0,0.0,3680000000.0,0.0,0.0,0.0,0.0,0.0,0.0,3680000000.0,0.0,0.0,0.0,0.0,0.0,0.0,6.39487035817
1663722023637305276,3680,1663722023585403413,odom,-1.14966913264,0.0,0.0,0.0,0.0,0.0,1.0,6.4114574343e-06,0.0,0.0,0.0,0.0,0.0,0.0,6.4114574343e-06,0.0,0.0,0.0,0.0,0.0,0.0,3681000000.0,0.0,0.0,0.0,0.0,0.0,0.0,3681000000.0,0.0,0.0,0.0,0.0,0.0,0.0,3681000000.0,0.0,0.0,0.0,0.0,0.0,0.0,6.41146662133
1663722023737146918,3681,1663722023725366745,odom,-1.14966913264,0.0,0.0,0.0,0.0,0.0,1.0,1.95897882804e-05,0.0,0.0,0.0,0.0,0.0,0.0,1.95897882804e-05,0.0,0.0,0.0,0.0,0.0,0.0,3682000000.0,0.0,0.0,0.0,0.0,0.0,0.0,3682000000.0,0.0,0.0,0.0,0.0,0.0,0.0,3682000000.0,0.0,0.0,0.0,0.0,0.0,0.0,19.589350557
1663722023837092178,3682,1663722023805386918,odom,-1.14966913264,0.0,0.0,0.0,0.0,0.0,1.0,6.40319194645e-06,0.0,0.0,0.0,0.0,0.0,0.0,6.40319194645e-06,0.0,0.0,0.0,0.0,0.0,0.0,3683000000.0,0.0,0.0,0.0,0.0,0.0,0.0,3683000000.0,0.0,0.0,0.0,0.0,0.0,0.0,3683000000.0,0.0,0.0,0.0,0.0,0.0,0.0,6.40318708681
1663722023937107667,3683,1663722023885387613,odom,-1.14966913264,0.0,0.0,0.0,0.0,0.0,1.0,6.40016514808e-06,0.0,0.0,0.0,0.0,0.0,0.0,6.40016514808e-06,0.0,0.0,0.0,0.0,0.0,0.0,3684000000.0,0.0,0.0,0.0,0.0,0.0,0.0,3684000000.0,0.0,0.0,0.0,0.0,0.0,0.0,3684000000.0,0.0,0.0,0.0,0.0,0.0,0.0,6.40007023967
1663722024037296571,3684,1663722024025387629,odom,-1.14966913264,0.0,0.0,0.0,0.0,0.0,1.0,1.96000328287e-05,0.0,0.0,0.0,0.0,0.0,0.0,1.96000328287e-05,0.0,0.0,0.0,0.0,0.0,0.0,3685000000.0,0.0,0.0,0.0,0.0,0.0,0.0,3685000000.0,0.0,0.0,0.0,0.0,0.0,0.0,3685000000.0,0.0,0.0,0.0,0.0,0.0,0.0,19.5996203299
1663722024137704582,3685,1663722024105388213,odom,-1.14966913264,0.0,0.0,0.0,0.0,0.0,1.0,6.40004873276e-06,0.0,0.0,0.0,0.0,0.0,0.0,6.40004873276e-06,0.0,0.0,0.0,0.0,0.0,0.0,3686000000.0,0.0,0.0,0.0,0.0,0.0,0.0,3686000000.0,0.0,0.0,0.0,0.0,0.0,0.0,3686000000.0,0.0,0.0,0.0,0.0,0.0,0.0,6.40005248017
1663722024237078238,3686,1663722024187626584,odom,-1.14966913264,0.0,0.0,0.0,0.0,0.0,1.0,6.76314812154e-06,0.0,0.0,0.0,0.0,0.0,0.0,6.76314812154e-06,0.0,0.0,0.0,0.0,0.0,0.0,3687000000.0,0.0,0.0,0.0,0.0,0.0,0.0,3687000000.0,0.0,0.0,0.0,0.0,0.0,0.0,3687000000.0,0.0,0.0,0.0,0.0,0.0,0.0,6.76310392516
1663722024337070010,3687,1663722024285391160,odom,-1.14966913264,0.0,0.0,0.0,0.0,0.0,1.0,9.55793075264e-06,0.0,0.0,0.0,0.0,0.0,0.0,9.55793075264e-06,0.0,0.0,0.0,0.0,0.0,0.0,3688000000.0,0.0,0.0,0.0,0.0,0.0,0.0,3688000000.0,0.0,0.0,0.0,0.0,0.0,0.0,3688000000.0,0.0,0.0,0.0,0.0,0.0,0.0,9.55782096821
1663722024437125020,3688,1663722024405393388,odom,-1.14966913264,0.0,0.0,0.0,0.0,0.0,1.0,1.44006917253e-05,0.0,0.0,0.0,0.0,0.0,0.0,1.44006917253e-05,0.0,0.0,0.0,0.0,0.0,0.0,3689000000.0,0.0,0.0,0.0,0.0,0.0,0.0,3689000000.0,0.0,0.0,0.0,0.0,0.0,0.0,3689000000.0,0.0,0.0,0.0,0.0,0.0,0.0,14.4003273546
1663722024537127447,3689,1663722024485493901,odom,-1.14966913264,0.0,0.0,0.0,0.0,0.0,1.0,6.41611404717e-06,0.0,0.0,0.0,0.0,0.0,0.0,6.41611404717e-06,0.0,0.0,0.0,0.0,0.0,0.0,3690000000.0,0.0,0.0,0.0,0.0,0.0,0.0,3690000000.0,0.0,0.0,0.0,0.0,0.0,0.0,3690000000.0,0.0,0.0,0.0,0.0,0.0,0.0,6.41605101747
1663722024637232820,3690,1663722024625360535,odom,-1.14966913264,0.0,0.0,0.0,0.0,0.0,1.0,1.95626635104e-05,0.0,0.0,0.0,0.0,0.0,0.0,1.95626635104e-05,0.0,0.0,0.0,0.0,0.0,0.0,3691000000.0,0.0,0.0,0.0,0.0,0.0,0.0,3691000000.0,0.0,0.0,0.0,0.0,0.0,0.0,3691000000.0,0.0,0.0,0.0,0.0,0.0,0.0,19.5622926181
1663722024737427248,3691,1663722024705388205,odom,-1.14966913264,0.0,0.0,0.0,0.0,0.0,1.0,6.40447251499e-06,0.0,0.0,0.0,0.0,0.0,0.0,6.40447251499e-06,0.0,0.0,0.0,0.0,0.0,0.0,3692000000.0,0.0,0.0,0.0,0.0,0.0,0.0,3692000000.0,0.0,0.0,0.0,0.0,0.0,0.0,3692000000.0,0.0,0.0,0.0,0.0,0.0,0.0,6.40438694996
1663722024837086970,3692,1663722024825359788,odom,-1.14966913264,0.0,0.0,0.0,0.0,0.0,1.0,1.43931247294e-05,0.0,0.0,0.0,0.0,0.0,0.0,1.43931247294e-05,0.0,0.0,0.0,0.0,0.0,0.0,3693000000.0,0.0,0.0,0.0,0.0,0.0,0.0,3693000000.0,0.0,0.0,0.0,0.0,0.0,0.0,3693000000.0,0.0,0.0,0.0,0.0,0.0,0.0,14.3929735682
1663722024937102421,3693,1663722024925386587,odom,-1.14966913264,0.0,0.0,0.0,0.0,0.0,1.0,1.00053148344e-05,0.0,0.0,0.0,0.0,0.0,0.0,1.00053148344e-05,0.0,0.0,0.0,0.0,0.0,0.0,3694000000.0,0.0,0.0,0.0,0.0,0.0,0.0,3694000000.0,0.0,0.0,0.0,0.0,0.0,0.0,3694000000.0,0.0,0.0,0.0,0.0,0.0,0.0,10.0052604135
1663722025037269305,3694,1663722025005385720,odom,-1.14966913264,0.0,0.0,0.0,0.0,0.0,1.0,6.39993231744e-06,0.0,0.0,0.0,0.0,0.0,0.0,6.39993231744e-06,0.0,0.0,0.0,0.0,0.0,0.0,3695000000.0,0.0,0.0,0.0,0.0,0.0,0.0,3695000000.0,0.0,0.0,0.0,0.0,0.0,0.0,3695000000.0,0.0,0.0,0.0,0.0,0.0,0.0,6.39982032322
1663722025137085449,3695,1663722025085358004,odom,-1.14966913264,0.0,0.0,0.0,0.0,0.0,1.0,6.39550853521e-06,0.0,0.0,0.0,0.0,0.0,0.0,6.39550853521e-06,0.0,0.0,0.0,0.0,0.0,0.0,3696000000.0,0.0,0.0,0.0,0.0,0.0,0.0,3696000000.0,0.0,0.0,0.0,0.0,0.0,0.0,3696000000.0,0.0,0.0,0.0,0.0,0.0,0.0,6.39552530553
1663722025237066524,3696,1663722025225388329,odom,-1.14966913264,0.0,0.0,0.0,0.0,0.0,1.0,1.96084147319e-05,0.0,0.0,0.0,0.0,0.0,0.0,1.96084147319e-05,0.0,0.0,0.0,0.0,0.0,0.0,3697000000.0,0.0,0.0,0.0,0.0,0.0,0.0,3697000000.0,0.0,0.0,0.0,0.0,0.0,0.0,3697000000.0,0.0,0.0,0.0,0.0,0.0,0.0,19.6081074364
1663722025337645503,3697,1663722025305394392,odom,-1.14966913264,0.0,0.0,0.0,0.0,0.0,1.0,6.40109647065e-06,0.0,0.0,0.0,0.0,0.0,0.0,6.40109647065e-06,0.0,0.0,0.0,0.0,0.0,0.0,3698000000.0,0.0,0.0,0.0,0.0,0.0,0.0,3698000000.0,0.0,0.0,0.0,0.0,0.0,0.0,3698000000.0,0.0,0.0,0.0,0.0,0.0,0.0,6.40092914528
1663722025437172140,3698,1663722025385359433,odom,-1.14966913264,0.0,0.0,0.0,0.0,0.0,1.0,6.39446079731e-06,0.0,0.0,0.0,0.0,0.0,0.0,6.39446079731e-06,0.0,0.0,0.0,0.0,0.0,0.0,3699000000.0,0.0,0.0,0.0,0.0,0.0,0.0,3699000000.0,0.0,0.0,0.0,0.0,0.0,0.0,3699000000.0,0.0,0.0,0.0,0.0,0.0,0.0,6.39436689427
1663722025537256364,3699,1663722025525388207,odom,-1.14966913264,0.0,0.0,0.0,0.0,0.0,1.0,1.96079490706e-05,0.0,0.0,0.0,0.0,0.0,0.0,1.96079490706e-05,0.0,0.0,0.0,0.0,0.0,0.0,3700000000.0,0.0,0.0,0.0,0.0,0.0,0.0,3700000000.0,0.0,0.0,0.0,0.0,0.0,0.0,3700000000.0,0.0,0.0,0.0,0.0,0.0,0.0,19.607673082
1663722025637099875,3700,1663722025605388849,odom,-1.14966913264,0.0,0.0,0.0,0.0,0.0,1.0,6.40004873276e-06,0.0,0.0,0.0,0.0,0.0,0.0,6.40004873276e-06,0.0,0.0,0.0,0.0,0.0,0.0,3701000000.0,0.0,0.0,0.0,0.0,0.0,0.0,3701000000.0,0.0,0.0,0.0,0.0,0.0,0.0,3701000000.0,0.0,0.0,0.0,0.0,0.0,0.0,6.40006176021
1663722025737044923,3701,1663722025686494069,odom,-1.14966913264,0.0,0.0,0.0,0.0,0.0,1.0,6.57804775983e-06,0.0,0.0,0.0,0.0,0.0,0.0,6.57804775983e-06,0.0,0.0,0.0,0.0,0.0,0.0,3702000000.0,0.0,0.0,0.0,0.0,0.0,0.0,3702000000.0,0.0,0.0,0.0,0.0,0.0,0.0,3702000000.0,0.0,0.0,0.0,0.0,0.0,0.0,6.57801344106
1663722025837072789,3702,1663722025825387651,odom,-1.14966913264,0.0,0.0,0.0,0.0,0.0,1.0,1.92914158106e-05,0.0,0.0,0.0,0.0,0.0,0.0,1.92914158106e-05,0.0,0.0,0.0,0.0,0.0,0.0,3703000000.0,0.0,0.0,0.0,0.0,0.0,0.0,3703000000.0,0.0,0.0,0.0,0.0,0.0,0.0,3703000000.0,0.0,0.0,0.0,0.0,0.0,0.0,19.2910549713
1663722025937031127,3703,1663722025905361417,odom,-1.14966913264,0.0,0.0,0.0,0.0,0.0,1.0,6.39597419649e-06,0.0,0.0,0.0,0.0,0.0,0.0,6.39597419649e-06,0.0,0.0,0.0,0.0,0.0,0.0,3704000000.0,0.0,0.0,0.0,0.0,0.0,0.0,3704000000.0,0.0,0.0,0.0,0.0,0.0,0.0,3704000000.0,0.0,0.0,0.0,0.0,0.0,0.0,6.39576234296
1663722026037029014,3704,1663722025985387716,odom,-1.14966913264,0.0,0.0,0.0,0.0,0.0,1.0,6.40423968434e-06,0.0,0.0,0.0,0.0,0.0,0.0,6.40423968434e-06,0.0,0.0,0.0,0.0,0.0,0.0,3705000000.0,0.0,0.0,0.0,0.0,0.0,0.0,3705000000.0,0.0,0.0,0.0,0.0,0.0,0.0,3705000000.0,0.0,0.0,0.0,0.0,0.0,0.0,6.40416751814
1663722026137059956,3705,1663722026125362752,odom,-1.14966913264,0.0,0.0,0.0,0.0,0.0,1.0,1.95930479094e-05,0.0,0.0,0.0,0.0,0.0,0.0,1.95930479094e-05,0.0,0.0,0.0,0.0,0.0,0.0,3706000000.0,0.0,0.0,0.0,0.0,0.0,0.0,3706000000.0,0.0,0.0,0.0,0.0,0.0,0.0,3706000000.0,0.0,0.0,0.0,0.0,0.0,0.0,19.5926268272
1663722026237057616,3706,1663722026205367581,odom,-1.14966913264,0.0,0.0,0.0,0.0,0.0,1.0,6.40074722469e-06,0.0,0.0,0.0,0.0,0.0,0.0,6.40074722469e-06,0.0,0.0,0.0,0.0,0.0,0.0,3707000000.0,0.0,0.0,0.0,0.0,0.0,0.0,3707000000.0,0.0,0.0,0.0,0.0,0.0,0.0,3707000000.0,0.0,0.0,0.0,0.0,0.0,0.0,6.40073169442
1663722026337118213,3707,1663722026305391881,odom,-1.14966913264,0.0,0.0,0.0,0.0,0.0,1.0,1.00048491731e-05,0.0,0.0,0.0,0.0,0.0,0.0,1.00048491731e-05,0.0,0.0,0.0,0.0,0.0,0.0,3708000000.0,0.0,0.0,0.0,0.0,0.0,0.0,3708000000.0,0.0,0.0,0.0,0.0,0.0,0.0,3708000000.0,0.0,0.0,0.0,0.0,0.0,0.0,10.0047604948
1663722026437116689,3708,1663722026425358952,odom,-1.14966913264,0.0,0.0,0.0,0.0,0.0,1.0,1.43920769915e-05,0.0,0.0,0.0,0.0,0.0,0.0,1.43920769915e-05,0.0,0.0,0.0,0.0,0.0,0.0,3709000000.0,0.0,0.0,0.0,0.0,0.0,0.0,3709000000.0,0.0,0.0,0.0,0.0,0.0,0.0,3709000000.0,0.0,0.0,0.0,0.0,0.0,0.0,14.391890997
1663722026537080298,3709,1663722026525361270,odom,-1.14966913264,0.0,0.0,0.0,0.0,0.0,1.0,1.00004253909e-05,0.0,0.0,0.0,0.0,0.0,0.0,1.00004253909e-05,0.0,0.0,0.0,0.0,0.0,0.0,3710000000.0,0.0,0.0,0.0,0.0,0.0,0.0,3710000000.0,0.0,0.0,0.0,0.0,0.0,0.0,3710000000.0,0.0,0.0,0.0,0.0,0.0,0.0,10.0003635986
1663722026637098124,3710,1663722026625395007,odom,-1.14966913264,0.0,0.0,0.0,0.0,0.0,1.0,1.00068282336e-05,0.0,0.0,0.0,0.0,0.0,0.0,1.00068282336e-05,0.0,0.0,0.0,0.0,0.0,0.0,3711000000.0,0.0,0.0,0.0,0.0,0.0,0.0,3711000000.0,0.0,0.0,0.0,0.0,0.0,0.0,3711000000.0,0.0,0.0,0.0,0.0,0.0,0.0,10.0066484052
1663722026737871435,3711,1663722026705392064,odom,-1.14966913264,0.0,0.0,0.0,0.0,0.0,1.0,6.39969948679e-06,0.0,0.0,0.0,0.0,0.0,0.0,6.39969948679e-06,0.0,0.0,0.0,0.0,0.0,0.0,3712000000.0,0.0,0.0,0.0,0.0,0.0,0.0,3712000000.0,0.0,0.0,0.0,0.0,0.0,0.0,3712000000.0,0.0,0.0,0.0,0.0,0.0,0.0,6.3994881754
1663722026837114357,3712,1663722026785397000,odom,-1.14966913264,0.0,0.0,0.0,0.0,0.0,1.0,6.40063080937e-06,0.0,0.0,0.0,0.0,0.0,0.0,6.40063080937e-06,0.0,0.0,0.0,0.0,0.0,0.0,3713000000.0,0.0,0.0,0.0,0.0,0.0,0.0,3713000000.0,0.0,0.0,0.0,0.0,0.0,0.0,3713000000.0,0.0,0.0,0.0,0.0,0.0,0.0,6.40074881481
1663722026937137475,3713,1663722026925589858,odom,-1.14966913264,0.0,0.0,0.0,0.0,0.0,1.0,1.96541659534e-05,0.0,0.0,0.0,0.0,0.0,0.0,1.96541659534e-05,0.0,0.0,0.0,0.0,0.0,0.0,3714000000.0,0.0,0.0,0.0,0.0,0.0,0.0,3714000000.0,0.0,0.0,0.0,0.0,0.0,0.0,3714000000.0,0.0,0.0,0.0,0.0,0.0,0.0,19.6536511632
1663722027037038332,3714,1663722027005390724,odom,-1.14966913264,0.0,0.0,0.0,0.0,0.0,1.0,6.3682673499e-06,0.0,0.0,0.0,0.0,0.0,0.0,6.3682673499e-06,0.0,0.0,0.0,0.0,0.0,0.0,3715000000.0,0.0,0.0,0.0,0.0,0.0,0.0,3715000000.0,0.0,0.0,0.0,0.0,0.0,0.0,3715000000.0,0.0,0.0,0.0,0.0,0.0,0.0,6.36813766172
1663722027137078096,3715,1663722027085361145,odom,-1.14966913264,0.0,0.0,0.0,0.0,0.0,1.0,6.39527570456e-06,0.0,0.0,0.0,0.0,0.0,0.0,6.39527570456e-06,0.0,0.0,0.0,0.0,0.0,0.0,3716000000.0,0.0,0.0,0.0,0.0,0.0,0.0,3716000000.0,0.0,0.0,0.0,0.0,0.0,0.0,3716000000.0,0.0,0.0,0.0,0.0,0.0,0.0,6.39522733598
1663722027237113397,3716,1663722027225381896,odom,-1.14966913264,0.0,0.0,0.0,0.0,0.0,1.0,1.96059700102e-05,0.0,0.0,0.0,0.0,0.0,0.0,1.96059700102e-05,0.0,0.0,0.0,0.0,0.0,0.0,3717000000.0,0.0,0.0,0.0,0.0,0.0,0.0,3717000000.0,0.0,0.0,0.0,0.0,0.0,0.0,3717000000.0,0.0,0.0,0.0,0.0,0.0,0.0,19.6054263327
1663722027337080363,3717,1663722027305387546,odom,-1.14966913264,0.0,0.0,0.0,0.0,0.0,1.0,6.40098005533e-06,0.0,0.0,0.0,0.0,0.0,0.0,6.40098005533e-06,0.0,0.0,0.0,0.0,0.0,0.0,3718000000.0,0.0,0.0,0.0,0.0,0.0,0.0,3718000000.0,0.0,0.0,0.0,0.0,0.0,0.0,3718000000.0,0.0,0.0,0.0,0.0,0.0,0.0,6.40086306154
1663722027437050970,3718,1663722027425391930,odom,-1.14966913264,0.0,0.0,0.0,0.0,0.0,1.0,1.44011573866e-05,0.0,0.0,0.0,0.0,0.0,0.0,1.44011573866e-05,0.0,0.0,0.0,0.0,0.0,0.0,3719000000.0,0.0,0.0,0.0,0.0,0.0,0.0,3719000000.0,0.0,0.0,0.0,0.0,0.0,0.0,3719000000.0,0.0,0.0,0.0,0.0,0.0,0.0,14.4008447933
1663722027539775197,3719,1663722027525390011,odom,-1.14966913264,0.0,0.0,0.0,0.0,0.0,1.0,9.99961048365e-06,0.0,0.0,0.0,0.0,0.0,0.0,9.99961048365e-06,0.0,0.0,0.0,0.0,0.0,0.0,3720000000.0,0.0,0.0,0.0,0.0,0.0,0.0,3720000000.0,0.0,0.0,0.0,0.0,0.0,0.0,3720000000.0,0.0,0.0,0.0,0.0,0.0,0.0,9.99951621389
1663722027637132523,3720,1663722027605368534,odom,-1.14966913264,0.0,0.0,0.0,0.0,0.0,1.0,6.39643985778e-06,0.0,0.0,0.0,0.0,0.0,0.0,6.39643985778e-06,0.0,0.0,0.0,0.0,0.0,0.0,3721000000.0,0.0,0.0,0.0,0.0,0.0,0.0,3721000000.0,0.0,0.0,0.0,0.0,0.0,0.0,3721000000.0,0.0,0.0,0.0,0.0,0.0,0.0,6.39652322594
1663722027737111042,3721,1663722027725387815,odom,-1.14966913264,0.0,0.0,0.0,0.0,0.0,1.0,1.44045334309e-05,0.0,0.0,0.0,0.0,0.0,0.0,1.44045334309e-05,0.0,0.0,0.0,0.0,0.0,0.0,3722000000.0,0.0,0.0,0.0,0.0,0.0,0.0,3722000000.0,0.0,0.0,0.0,0.0,0.0,0.0,3722000000.0,0.0,0.0,0.0,0.0,0.0,0.0,14.4044203227
1663722027837083358,3722,1663722027825365645,odom,-1.14966913264,0.0,0.0,0.0,0.0,0.0,1.0,9.99553594738e-06,0.0,0.0,0.0,0.0,0.0,0.0,9.99553594738e-06,0.0,0.0,0.0,0.0,0.0,0.0,3723000000.0,0.0,0.0,0.0,0.0,0.0,0.0,3723000000.0,0.0,0.0,0.0,0.0,0.0,0.0,3723000000.0,0.0,0.0,0.0,0.0,0.0,0.0,9.99546658248
1663722027937082582,3723,1663722027905359849,odom,-1.14966913264,0.0,0.0,0.0,0.0,0.0,1.0,6.39900099486e-06,0.0,0.0,0.0,0.0,0.0,0.0,6.39900099486e-06,0.0,0.0,0.0,0.0,0.0,0.0,3724000000.0,0.0,0.0,0.0,0.0,0.0,0.0,3724000000.0,0.0,0.0,0.0,0.0,0.0,0.0,3724000000.0,0.0,0.0,0.0,0.0,0.0,0.0,6.39903172618
1663722028037122170,3724,1663722027985386392,odom,-1.14966913264,0.0,0.0,0.0,0.0,0.0,1.0,6.40423968434e-06,0.0,0.0,0.0,0.0,0.0,0.0,6.40423968434e-06,0.0,0.0,0.0,0.0,0.0,0.0,3725000000.0,0.0,0.0,0.0,0.0,0.0,0.0,3725000000.0,0.0,0.0,0.0,0.0,0.0,0.0,3725000000.0,0.0,0.0,0.0,0.0,0.0,0.0,6.40420657059
1663722028137117335,3725,1663722028125363763,odom,-1.14966913264,0.0,0.0,0.0,0.0,0.0,1.0,1.95935135707e-05,0.0,0.0,0.0,0.0,0.0,0.0,1.95935135707e-05,0.0,0.0,0.0,0.0,0.0,0.0,3726000000.0,0.0,0.0,0.0,0.0,0.0,0.0,3726000000.0,0.0,0.0,0.0,0.0,0.0,0.0,3726000000.0,0.0,0.0,0.0,0.0,0.0,0.0,19.5932804904
1663722028237104976,3726,1663722028205368262,odom,-1.14966913264,0.0,0.0,0.0,0.0,0.0,1.0,6.40063080937e-06,0.0,0.0,0.0,0.0,0.0,0.0,6.40063080937e-06,0.0,0.0,0.0,0.0,0.0,0.0,3727000000.0,0.0,0.0,0.0,0.0,0.0,0.0,3727000000.0,0.0,0.0,0.0,0.0,0.0,0.0,3727000000.0,0.0,0.0,0.0,0.0,0.0,0.0,6.40067889192
1663722028337056816,3727,1663722028285388725,odom,-1.14966913264,0.0,0.0,0.0,0.0,0.0,1.0,6.40330836177e-06,0.0,0.0,0.0,0.0,0.0,0.0,6.40330836177e-06,0.0,0.0,0.0,0.0,0.0,0.0,3728000000.0,0.0,0.0,0.0,0.0,0.0,0.0,3728000000.0,0.0,0.0,0.0,0.0,0.0,0.0,3728000000.0,0.0,0.0,0.0,0.0,0.0,0.0,6.4032334974
1663722028437632799,3728,1663722028425393488,odom,-1.14966913264,0.0,0.0,0.0,0.0,0.0,1.0,1.96013133973e-05,0.0,0.0,0.0,0.0,0.0,0.0,1.96013133973e-05,0.0,0.0,0.0,0.0,0.0,0.0,3729000000.0,0.0,0.0,0.0,0.0,0.0,0.0,3729000000.0,0.0,0.0,0.0,0.0,0.0,0.0,3729000000.0,0.0,0.0,0.0,0.0,0.0,0.0,19.6009494604
1663722028537175126,3729,1663722028505359048,odom,-1.14966913264,0.0,0.0,0.0,0.0,0.0,1.0,6.39434438199e-06,0.0,0.0,0.0,0.0,0.0,0.0,6.39434438199e-06,0.0,0.0,0.0,0.0,0.0,0.0,3730000000.0,0.0,0.0,0.0,0.0,0.0,0.0,3730000000.0,0.0,0.0,0.0,0.0,0.0,0.0,3730000000.0,0.0,0.0,0.0,0.0,0.0,0.0,6.39444989758
1663722028637167890,3730,1663722028585362148,odom,-1.14966913264,0.0,0.0,0.0,0.0,0.0,1.0,6.40051439404e-06,0.0,0.0,0.0,0.0,0.0,0.0,6.40051439404e-06,0.0,0.0,0.0,0.0,0.0,0.0,3731000000.0,0.0,0.0,0.0,0.0,0.0,0.0,3731000000.0,0.0,0.0,0.0,0.0,0.0,0.0,3731000000.0,0.0,0.0,0.0,0.0,0.0,0.0,6.40045504377
1663722028737133474,3731,1663722028725394036,odom,-1.14966913264,0.0,0.0,0.0,0.0,0.0,1.0,1.96089968085e-05,0.0,0.0,0.0,0.0,0.0,0.0,1.96089968085e-05,0.0,0.0,0.0,0.0,0.0,0.0,3732000000.0,0.0,0.0,0.0,0.0,0.0,0.0,3732000000.0,0.0,0.0,0.0,0.0,0.0,0.0,3732000000.0,0.0,0.0,0.0,0.0,0.0,0.0,19.6085451567
1663722028837158540,3732,1663722028805362202,odom,-1.14966913264,0.0,0.0,0.0,0.0,0.0,1.0,6.39504287392e-06,0.0,0.0,0.0,0.0,0.0,0.0,6.39504287392e-06,0.0,0.0,0.0,0.0,0.0,0.0,3733000000.0,0.0,0.0,0.0,0.0,0.0,0.0,3733000000.0,0.0,0.0,0.0,0.0,0.0,0.0,3733000000.0,0.0,0.0,0.0,0.0,0.0,0.0,6.39486667956
1663722028937108725,3733,1663722028885358190,odom,-1.14966913264,0.0,0.0,0.0,0.0,0.0,1.0,6.39946665615e-06,0.0,0.0,0.0,0.0,0.0,0.0,6.39946665615e-06,0.0,0.0,0.0,0.0,0.0,0.0,3734000000.0,0.0,0.0,0.0,0.0,0.0,0.0,3734000000.0,0.0,0.0,0.0,0.0,0.0,0.0,3734000000.0,0.0,0.0,0.0,0.0,0.0,0.0,6.39931714477
1663722029037162020,3734,1663722029025367173,odom,-1.14966913264,0.0,0.0,0.0,0.0,0.0,1.0,1.96023611352e-05,0.0,0.0,0.0,0.0,0.0,0.0,1.96023611352e-05,0.0,0.0,0.0,0.0,0.0,0.0,3735000000.0,0.0,0.0,0.0,0.0,0.0,0.0,3735000000.0,0.0,0.0,0.0,0.0,0.0,0.0,3735000000.0,0.0,0.0,0.0,0.0,0.0,0.0,19.602131072
1663722029137139572,3735,1663722029105391211,odom,-1.14966913264,0.0,0.0,0.0,0.0,0.0,1.0,6.40389043838e-06,0.0,0.0,0.0,0.0,0.0,0.0,6.40389043838e-06,0.0,0.0,0.0,0.0,0.0,0.0,3736000000.0,0.0,0.0,0.0,0.0,0.0,0.0,3736000000.0,0.0,0.0,0.0,0.0,0.0,0.0,3736000000.0,0.0,0.0,0.0,0.0,0.0,0.0,6.40380564949
1663722029237333490,3736,1663722029205360923,odom,-1.14966913264,0.0,0.0,0.0,0.0,0.0,1.0,9.99390613288e-06,0.0,0.0,0.0,0.0,0.0,0.0,9.99390613288e-06,0.0,0.0,0.0,0.0,0.0,0.0,3737000000.0,0.0,0.0,0.0,0.0,0.0,0.0,3737000000.0,0.0,0.0,0.0,0.0,0.0,0.0,3737000000.0,0.0,0.0,0.0,0.0,0.0,0.0,9.99384344008
1663722029337069182,3737,1663722029325359343,odom,-1.14966913264,0.0,0.0,0.0,0.0,0.0,1.0,1.43996439874e-05,0.0,0.0,0.0,0.0,0.0,0.0,1.43996439874e-05,0.0,0.0,0.0,0.0,0.0,0.0,3738000000.0,0.0,0.0,0.0,0.0,0.0,0.0,3738000000.0,0.0,0.0,0.0,0.0,0.0,0.0,3738000000.0,0.0,0.0,0.0,0.0,0.0,0.0,14.3994134584
1663722029437138888,3738,1663722029405388086,odom,-1.14966913264,0.0,0.0,0.0,0.0,0.0,1.0,6.40458893031e-06,0.0,0.0,0.0,0.0,0.0,0.0,6.40458893031e-06,0.0,0.0,0.0,0.0,0.0,0.0,3739000000.0,0.0,0.0,0.0,0.0,0.0,0.0,3739000000.0,0.0,0.0,0.0,0.0,0.0,0.0,3739000000.0,0.0,0.0,0.0,0.0,0.0,0.0,6.40455868817
1663722029537203931,3739,1663722029505364338,odom,-1.14966913264,0.0,0.0,0.0,0.0,0.0,1.0,9.99530311674e-06,0.0,0.0,0.0,0.0,0.0,0.0,9.99530311674e-06,0.0,0.0,0.0,0.0,0.0,0.0,3740000000.0,0.0,0.0,0.0,0.0,0.0,0.0,3740000000.0,0.0,0.0,0.0,0.0,0.0,0.0,3740000000.0,0.0,0.0,0.0,0.0,0.0,0.0,9.99515106063
1663722029637720746,3740,1663722029625363040,odom,-1.14966913264,0.0,0.0,0.0,0.0,0.0,1.0,1.43997604027e-05,0.0,0.0,0.0,0.0,0.0,0.0,1.43997604027e-05,0.0,0.0,0.0,0.0,0.0,0.0,3741000000.0,0.0,0.0,0.0,0.0,0.0,0.0,3741000000.0,0.0,0.0,0.0,0.0,0.0,0.0,3741000000.0,0.0,0.0,0.0,0.0,0.0,0.0,14.3994811357
1663722029737197856,3741,1663722029705359010,odom,-1.14966913264,0.0,0.0,0.0,0.0,0.0,1.0,6.39946665615e-06,0.0,0.0,0.0,0.0,0.0,0.0,6.39946665615e-06,0.0,0.0,0.0,0.0,0.0,0.0,3742000000.0,0.0,0.0,0.0,0.0,0.0,0.0,3742000000.0,0.0,0.0,0.0,0.0,0.0,0.0,3742000000.0,0.0,0.0,0.0,0.0,0.0,0.0,6.39931426535
1663722029837058644,3742,1663722029805865249,odom,-1.14966913264,0.0,0.0,0.0,0.0,0.0,1.0,1.01013574749e-05,0.0,0.0,0.0,0.0,0.0,0.0,1.01013574749e-05,0.0,0.0,0.0,0.0,0.0,0.0,3743000000.0,0.0,0.0,0.0,0.0,0.0,0.0,3743000000.0,0.0,0.0,0.0,0.0,0.0,0.0,3743000000.0,0.0,0.0,0.0,0.0,0.0,0.0,10.1014020392
1663722029938956700,3743,1663722029925392542,odom,-1.14966913264,0.0,0.0,0.0,0.0,0.0,1.0,1.42867211252e-05,0.0,0.0,0.0,0.0,0.0,0.0,1.42867211252e-05,0.0,0.0,0.0,0.0,0.0,0.0,3744000000.0,0.0,0.0,0.0,0.0,0.0,0.0,3744000000.0,0.0,0.0,0.0,0.0,0.0,0.0,3744000000.0,0.0,0.0,0.0,0.0,0.0,0.0,14.286569665
1663722030037126237,3744,1663722030005364353,odom,-1.14966913264,0.0,0.0,0.0,0.0,0.0,1.0,6.39550853521e-06,0.0,0.0,0.0,0.0,0.0,0.0,6.39550853521e-06,0.0,0.0,0.0,0.0,0.0,0.0,3745000000.0,0.0,0.0,0.0,0.0,0.0,0.0,3745000000.0,0.0,0.0,0.0,0.0,0.0,0.0,3745000000.0,0.0,0.0,0.0,0.0,0.0,0.0,6.39544965315
1663722030137193609,3745,1663722030085387975,odom,-1.14966913264,0.0,0.0,0.0,0.0,0.0,1.0,6.40389043838e-06,0.0,0.0,0.0,0.0,0.0,0.0,6.40389043838e-06,0.0,0.0,0.0,0.0,0.0,0.0,3746000000.0,0.0,0.0,0.0,0.0,0.0,0.0,3746000000.0,0.0,0.0,0.0,0.0,0.0,0.0,3746000000.0,0.0,0.0,0.0,0.0,0.0,0.0,6.40373907005
1663722030237214182,3746,1663722030225386667,odom,-1.14966913264,0.0,0.0,0.0,0.0,0.0,1.0,1.95996835828e-05,0.0,0.0,0.0,0.0,0.0,0.0,1.95996835828e-05,0.0,0.0,0.0,0.0,0.0,0.0,3747000000.0,0.0,0.0,0.0,0.0,0.0,0.0,3747000000.0,0.0,0.0,0.0,0.0,0.0,0.0,3747000000.0,0.0,0.0,0.0,0.0,0.0,0.0,19.599249626
1663722030337092941,3747,1663722030305362256,odom,-1.14966913264,0.0,0.0,0.0,0.0,0.0,1.0,6.39597419649e-06,0.0,0.0,0.0,0.0,0.0,0.0,6.39597419649e-06,0.0,0.0,0.0,0.0,0.0,0.0,3748000000.0,0.0,0.0,0.0,0.0,0.0,0.0,3748000000.0,0.0,0.0,0.0,0.0,0.0,0.0,3748000000.0,0.0,0.0,0.0,0.0,0.0,0.0,6.3960539269
1663722030437124613,3748,1663722030385390945,odom,-1.14966913264,0.0,0.0,0.0,0.0,0.0,1.0,6.40470534563e-06,0.0,0.0,0.0,0.0,0.0,0.0,6.40470534563e-06,0.0,0.0,0.0,0.0,0.0,0.0,3749000000.0,0.0,0.0,0.0,0.0,0.0,0.0,3749000000.0,0.0,0.0,0.0,0.0,0.0,0.0,3749000000.0,0.0,0.0,0.0,0.0,0.0,0.0,6.4045500448
1663722030537168930,3749,1663722030525399655,odom,-1.14966913264,0.0,0.0,0.0,0.0,0.0,1.0,1.96024775505e-05,0.0,0.0,0.0,0.0,0.0,0.0,1.96024775505e-05,0.0,0.0,0.0,0.0,0.0,0.0,3750000000.0,0.0,0.0,0.0,0.0,0.0,0.0,3750000000.0,0.0,0.0,0.0,0.0,0.0,0.0,3750000000.0,0.0,0.0,0.0,0.0,0.0,0.0,19.6020546302
1663722030637134936,3750,1663722030605388710,odom,-1.14966913264,0.0,0.0,0.0,0.0,0.0,1.0,6.39830250293e-06,0.0,0.0,0.0,0.0,0.0,0.0,6.39830250293e-06,0.0,0.0,0.0,0.0,0.0,0.0,3751000000.0,0.0,0.0,0.0,0.0,0.0,0.0,3751000000.0,0.0,0.0,0.0,0.0,0.0,0.0,3751000000.0,0.0,0.0,0.0,0.0,0.0,0.0,6.39820798323
1663722030737194254,3751,1663722030685394964,odom,-1.14966913264,0.0,0.0,0.0,0.0,0.0,1.0,6.40098005533e-06,0.0,0.0,0.0,0.0,0.0,0.0,6.40098005533e-06,0.0,0.0,0.0,0.0,0.0,0.0,3752000000.0,0.0,0.0,0.0,0.0,0.0,0.0,3752000000.0,0.0,0.0,0.0,0.0,0.0,0.0,3752000000.0,0.0,0.0,0.0,0.0,0.0,0.0,6.40095970675
1663722030837157927,3752,1663722030825387497,odom,-1.14966913264,0.0,0.0,0.0,0.0,0.0,1.0,1.95978209376e-05,0.0,0.0,0.0,0.0,0.0,0.0,1.95978209376e-05,0.0,0.0,0.0,0.0,0.0,0.0,3753000000.0,0.0,0.0,0.0,0.0,0.0,0.0,3753000000.0,0.0,0.0,0.0,0.0,0.0,0.0,3753000000.0,0.0,0.0,0.0,0.0,0.0,0.0,19.5975252276
1663722030937099566,3753,1663722030905359246,odom,-1.14966913264,0.0,0.0,0.0,0.0,0.0,1.0,6.39550853521e-06,0.0,0.0,0.0,0.0,0.0,0.0,6.39550853521e-06,0.0,0.0,0.0,0.0,0.0,0.0,3754000000.0,0.0,0.0,0.0,0.0,0.0,0.0,3754000000.0,0.0,0.0,0.0,0.0,0.0,0.0,3754000000.0,0.0,0.0,0.0,0.0,0.0,0.0,6.39543973713
1663722031037093189,3754,1663722031005360398,odom,-1.14966913264,0.0,0.0,0.0,0.0,0.0,1.0,1.00000761449e-05,0.0,0.0,0.0,0.0,0.0,0.0,1.00000761449e-05,0.0,0.0,0.0,0.0,0.0,0.0,3755000000.0,0.0,0.0,0.0,0.0,0.0,0.0,3755000000.0,0.0,0.0,0.0,0.0,0.0,0.0,3755000000.0,0.0,0.0,0.0,0.0,0.0,0.0,10.0001303983
1663722031137165690,3755,1663722031125363033,odom,-1.14966913264,0.0,0.0,0.0,0.0,0.0,1.0,1.44006917253e-05,0.0,0.0,0.0,0.0,0.0,0.0,1.44006917253e-05,0.0,0.0,0.0,0.0,0.0,0.0,3756000000.0,0.0,0.0,0.0,0.0,0.0,0.0,3756000000.0,0.0,0.0,0.0,0.0,0.0,0.0,3756000000.0,0.0,0.0,0.0,0.0,0.0,0.0,14.4004250336
1663722031237108786,3756,1663722031205388968,odom,-1.14609040575,0.0,0.0,0.0,0.0,0.0,1.0,6.40423968434e-06,0.0,0.0,0.0,0.0,0.0,0.0,6.40423968434e-06,0.0,0.0,0.0,0.0,0.0,0.0,3757000000.0,0.0,0.0,0.0,0.0,0.0,0.0,3757000000.0,0.0,0.0,0.0,0.0,0.0,0.0,3757000000.0,0.0,0.0,0.0,0.0,0.0,0.0,6.40410926018
1663722031337103351,3757,1663722031325359340,odom,-1.1243024632,0.0,0.0,0.0,0.0,0.0,1.0,1.43927754834e-05,0.0,0.0,0.0,0.0,0.0,0.0,1.43927754834e-05,0.0,0.0,0.0,0.0,0.0,0.0,3758000000.0,0.0,0.0,0.0,0.0,0.0,0.0,3758000000.0,0.0,0.0,0.0,0.0,0.0,0.0,3758000000.0,0.0,0.0,0.0,0.0,0.0,0.0,14.3926830068
1663722031437228089,3758,1663722031425395383,odom,-1.08723543184,0.0,0.0,0.0,0.0,0.0,1.0,1.00070610642e-05,0.0,0.0,0.0,0.0,0.0,0.0,1.00070610642e-05,0.0,0.0,0.0,0.0,0.0,0.0,3759000000.0,0.0,0.0,0.0,0.0,0.0,0.0,3759000000.0,0.0,0.0,0.0,0.0,0.0,0.0,3759000000.0,0.0,0.0,0.0,0.0,0.0,0.0,10.0071097574
1663722031537117336,3759,1663722031525388396,odom,-1.03623353855,0.0,0.0,0.0,0.0,0.0,1.0,9.99867916107e-06,0.0,0.0,0.0,0.0,0.0,0.0,9.99867916107e-06,0.0,0.0,0.0,0.0,0.0,0.0,3760000000.0,0.0,0.0,0.0,0.0,0.0,0.0,3760000000.0,0.0,0.0,0.0,0.0,0.0,0.0,3760000000.0,0.0,0.0,0.0,0.0,0.0,0.0,9.99850267882
1663722031637131705,3760,1663722031605368633,odom,-0.995723100038,0.0,0.0,0.0,0.0,0.0,1.0,6.39678910375e-06,0.0,0.0,0.0,0.0,0.0,0.0,6.39678910375e-06,0.0,0.0,0.0,0.0,0.0,0.0,3761000000.0,0.0,0.0,0.0,0.0,0.0,0.0,3761000000.0,0.0,0.0,0.0,0.0,0.0,0.0,3761000000.0,0.0,0.0,0.0,0.0,0.0,0.0,6.3967973917
1663722031739829623,3761,1663722031685357799,odom,-0.955709184401,0.0,0.0,0.0,0.0,0.0,1.0,6.39830250293e-06,0.0,0.0,0.0,0.0,0.0,0.0,6.39830250293e-06,0.0,0.0,0.0,0.0,0.0,0.0,3762000000.0,0.0,0.0,0.0,0.0,0.0,0.0,3762000000.0,0.0,0.0,0.0,0.0,0.0,0.0,3762000000.0,0.0,0.0,0.0,0.0,0.0,0.0,6.39822574018
1663722031837079761,3762,1663722031825365167,odom,-0.885426733285,0.0,0.0,0.0,0.0,0.0,1.0,1.96021283045e-05,0.0,0.0,0.0,0.0,0.0,0.0,1.96021283045e-05,0.0,0.0,0.0,0.0,0.0,0.0,3763000000.0,0.0,0.0,0.0,0.0,0.0,0.0,3763000000.0,0.0,0.0,0.0,0.0,0.0,0.0,3763000000.0,0.0,0.0,0.0,0.0,0.0,0.0,19.6016788634
1663722031937267831,3763,1663722031905365277,odom,-0.845446916166,0.0,0.0,0.0,0.0,0.0,1.0,6.40004873276e-06,0.0,0.0,0.0,0.0,0.0,0.0,6.40004873276e-06,0.0,0.0,0.0,0.0,0.0,0.0,3764000000.0,0.0,0.0,0.0,0.0,0.0,0.0,3764000000.0,0.0,0.0,0.0,0.0,0.0,0.0,3764000000.0,0.0,0.0,0.0,0.0,0.0,0.0,6.39997664082
1663722032037138811,3764,1663722031985399877,odom,-0.806072078598,0.0,0.0,0.0,0.0,0.0,1.0,6.40540383756e-06,0.0,0.0,0.0,0.0,0.0,0.0,6.40540383756e-06,0.0,0.0,0.0,0.0,0.0,0.0,3765000000.0,0.0,0.0,0.0,0.0,0.0,0.0,3765000000.0,0.0,0.0,0.0,0.0,0.0,0.0,3765000000.0,0.0,0.0,0.0,0.0,0.0,0.0,6.40549616679
1663722032137242735,3765,1663722032125402544,odom,-0.734833169862,0.0,0.0,0.0,0.0,0.0,1.0,1.96006149054e-05,0.0,0.0,0.0,0.0,0.0,0.0,1.96006149054e-05,0.0,0.0,0.0,0.0,0.0,0.0,3766000000.0,0.0,0.0,0.0,0.0,0.0,0.0,3766000000.0,0.0,0.0,0.0,0.0,0.0,0.0,3766000000.0,0.0,0.0,0.0,0.0,0.0,0.0,19.6003625877
1663722032237095090,3766,1663722032205361933,odom,-0.694713530046,0.0,0.0,0.0,0.0,0.0,1.0,6.39352947474e-06,0.0,0.0,0.0,0.0,0.0,0.0,6.39352947474e-06,0.0,0.0,0.0,0.0,0.0,0.0,3767000000.0,0.0,0.0,0.0,0.0,0.0,0.0,3767000000.0,0.0,0.0,0.0,0.0,0.0,0.0,3767000000.0,0.0,0.0,0.0,0.0,0.0,0.0,6.39346301346
1663722032337344705,3767,1663722032285362105,odom,-0.654793693978,0.0,0.0,0.0,0.0,0.0,1.0,6.40004873276e-06,0.0,0.0,0.0,0.0,0.0,0.0,6.40004873276e-06,0.0,0.0,0.0,0.0,0.0,0.0,3768000000.0,0.0,0.0,0.0,0.0,0.0,0.0,3768000000.0,0.0,0.0,0.0,0.0,0.0,0.0,3768000000.0,0.0,0.0,0.0,0.0,0.0,0.0,6.39998656011
1663722032437115863,3768,1663722032425359467,odom,-0.585315359442,0.0,0.0,0.0,0.0,0.0,1.0,1.95992179215e-05,0.0,0.0,0.0,0.0,0.0,0.0,1.95992179215e-05,0.0,0.0,0.0,0.0,0.0,0.0,3769000000.0,0.0,0.0,0.0,0.0,0.0,0.0,3769000000.0,0.0,0.0,0.0,0.0,0.0,0.0,3769000000.0,0.0,0.0,0.0,0.0,0.0,0.0,19.5988772459
1663722032537068479,3769,1663722032505362018,odom,-0.544712170858,0.0,0.0,0.0,0.0,0.0,1.0,6.40051439404e-06,0.0,0.0,0.0,0.0,0.0,0.0,6.40051439404e-06,0.0,0.0,0.0,0.0,0.0,0.0,3770000000.0,0.0,0.0,0.0,0.0,0.0,0.0,3770000000.0,0.0,0.0,0.0,0.0,0.0,0.0,3770000000.0,0.0,0.0,0.0,0.0,0.0,0.0,6.40036720224
1663722032637153218,3770,1663722032585361832,odom,-0.504392392209,0.0,0.0,0.0,0.0,0.0,1.0,6.39993231744e-06,0.0,0.0,0.0,0.0,0.0,0.0,6.39993231744e-06,0.0,0.0,0.0,0.0,0.0,0.0,3771000000.0,0.0,0.0,0.0,0.0,0.0,0.0,3771000000.0,0.0,0.0,0.0,0.0,0.0,0.0,3771000000.0,0.0,0.0,0.0,0.0,0.0,0.0,6.39992928097
1663722032737059000,3771,1663722032725386864,odom,-0.434459439353,0.0,0.0,0.0,0.0,0.0,1.0,1.96070177481e-05,0.0,0.0,0.0,0.0,0.0,0.0,1.96070177481e-05,0.0,0.0,0.0,0.0,0.0,0.0,3772000000.0,0.0,0.0,0.0,0.0,0.0,0.0,3772000000.0,0.0,0.0,0.0,0.0,0.0,0.0,3772000000.0,0.0,0.0,0.0,0.0,0.0,0.0,19.6066251617
1663722032837151550,3772,1663722032805386955,odom,-0.394419004267,0.0,0.0,0.0,0.0,0.0,1.0,6.40004873276e-06,0.0,0.0,0.0,0.0,0.0,0.0,6.40004873276e-06,0.0,0.0,0.0,0.0,0.0,0.0,3773000000.0,0.0,0.0,0.0,0.0,0.0,0.0,3773000000.0,0.0,0.0,0.0,0.0,0.0,0.0,3773000000.0,0.0,0.0,0.0,0.0,0.0,0.0,6.39997360075
1663722032937067986,3773,1663722032925368483,odom,-0.334007425047,0.0,0.0,0.0,0.0,0.0,1.0,1.43954530358e-05,0.0,0.0,0.0,0.0,0.0,0.0,1.43954530358e-05,0.0,0.0,0.0,0.0,0.0,0.0,3774000000.0,0.0,0.0,0.0,0.0,0.0,0.0,3774000000.0,0.0,0.0,0.0,0.0,0.0,0.0,3774000000.0,0.0,0.0,0.0,0.0,0.0,0.0,14.3953598331
1663722033037134011,3774,1663722033005362520,odom,-0.293950878659,0.0,0.0,0.0,0.0,0.0,1.0,6.39900099486e-06,0.0,0.0,0.0,0.0,0.0,0.0,6.39900099486e-06,0.0,0.0,0.0,0.0,0.0,0.0,3775000000.0,0.0,0.0,0.0,0.0,0.0,0.0,3775000000.0,0.0,0.0,0.0,0.0,0.0,0.0,3775000000.0,0.0,0.0,0.0,0.0,0.0,0.0,6.39900500851
1663722033137161572,3775,1663722033125361176,odom,-0.234053125969,0.0,0.0,0.0,0.0,0.0,1.0,1.43997604027e-05,0.0,0.0,0.0,0.0,0.0,0.0,1.43997604027e-05,0.0,0.0,0.0,0.0,0.0,0.0,3776000000.0,0.0,0.0,0.0,0.0,0.0,0.0,3776000000.0,0.0,0.0,0.0,0.0,0.0,0.0,3776000000.0,0.0,0.0,0.0,0.0,0.0,0.0,14.3994700955
1663722033239429482,3776,1663722033225388093,odom,-0.183879951284,0.0,0.0,0.0,0.0,0.0,1.0,1.00054312497e-05,0.0,0.0,0.0,0.0,0.0,0.0,1.00054312497e-05,0.0,0.0,0.0,0.0,0.0,0.0,3777000000.0,0.0,0.0,0.0,0.0,0.0,0.0,3777000000.0,0.0,0.0,0.0,0.0,0.0,0.0,3777000000.0,0.0,0.0,0.0,0.0,0.0,0.0,10.0052840194
1663722033337136255,3777,1663722033305382830,odom,-0.143381617642,0.0,0.0,0.0,0.0,0.0,1.0,6.39911741018e-06,0.0,0.0,0.0,0.0,0.0,0.0,6.39911741018e-06,0.0,0.0,0.0,0.0,0.0,0.0,3778000000.0,0.0,0.0,0.0,0.0,0.0,0.0,3778000000.0,0.0,0.0,0.0,0.0,0.0,0.0,3778000000.0,0.0,0.0,0.0,0.0,0.0,0.0,6.39911699924
1663722033437099261,3778,1663722033405360009,odom,-0.0930729886603,0.0,0.0,0.0,0.0,0.0,1.0,9.99541953206e-06,0.0,0.0,0.0,0.0,0.0,0.0,9.99541953206e-06,0.0,0.0,0.0,0.0,0.0,0.0,3779000000.0,0.0,0.0,0.0,0.0,0.0,0.0,3779000000.0,0.0,0.0,0.0,0.0,0.0,0.0,3779000000.0,0.0,0.0,0.0,0.0,0.0,0.0,9.9953364135
1663722033537246639,3779,1663722033525385536,odom,-0.0330018933994,0.0,0.0,0.0,0.0,0.0,1.0,1.44061632454e-05,0.0,0.0,0.0,0.0,0.0,0.0,1.44061632454e-05,0.0,0.0,0.0,0.0,0.0,0.0,3780000000.0,0.0,0.0,0.0,0.0,0.0,0.0,3780000000.0,0.0,0.0,0.0,0.0,0.0,0.0,3780000000.0,0.0,0.0,0.0,0.0,0.0,0.0,14.4059196003
1663722033637096271,3780,1663722033605383995,odom,0.00669625922404,0.0,0.0,0.0,0.0,0.0,1.0,6.39981590211e-06,0.0,0.0,0.0,0.0,0.0,0.0,6.39981590211e-06,0.0,0.0,0.0,0.0,0.0,0.0,3781000000.0,0.0,0.0,0.0,0.0,0.0,0.0,3781000000.0,0.0,0.0,0.0,0.0,0.0,0.0,3781000000.0,0.0,0.0,0.0,0.0,0.0,0.0,6.39971248631
1663722033737166434,3781,1663722033725361322,odom,0.0669483403234,0.0,0.0,0.0,0.0,0.0,1.0,1.43945217133e-05,0.0,0.0,0.0,0.0,0.0,0.0,1.43945217133e-05,0.0,0.0,0.0,0.0,0.0,0.0,3782000000.0,0.0,0.0,0.0,0.0,0.0,0.0,3782000000.0,0.0,0.0,0.0,0.0,0.0,0.0,3782000000.0,0.0,0.0,0.0,0.0,0.0,0.0,14.3943517952
1663722033837111219,3782,1663722033825601123,odom,0.117249679863,0.0,0.0,0.0,0.0,0.0,1.0,1.00481556728e-05,0.0,0.0,0.0,0.0,0.0,0.0,1.00481556728e-05,0.0,0.0,0.0,0.0,0.0,0.0,3783000000.0,0.0,0.0,0.0,0.0,0.0,0.0,3783000000.0,0.0,0.0,0.0,0.0,0.0,0.0,3783000000.0,0.0,0.0,0.0,0.0,0.0,0.0,10.0479167443
1663722033937098932,3783,1663722033905360287,odom,0.157009458238,0.0,0.0,0.0,0.0,0.0,1.0,6.36151526123e-06,0.0,0.0,0.0,0.0,0.0,0.0,6.36151526123e-06,0.0,0.0,0.0,0.0,0.0,0.0,3784000000.0,0.0,0.0,0.0,0.0,0.0,0.0,3784000000.0,0.0,0.0,0.0,0.0,0.0,0.0,3784000000.0,0.0,0.0,0.0,0.0,0.0,0.0,6.36148377357
1663722034037182117,3784,1663722034005364285,odom,0.207242239111,0.0,0.0,0.0,0.0,0.0,1.0,1.00008910522e-05,0.0,0.0,0.0,0.0,0.0,0.0,1.00008910522e-05,0.0,0.0,0.0,0.0,0.0,0.0,3785000000.0,0.0,0.0,0.0,0.0,0.0,0.0,3785000000.0,0.0,0.0,0.0,0.0,0.0,0.0,3785000000.0,0.0,0.0,0.0,0.0,0.0,0.0,10.0006996016
1663722034137138376,3785,1663722034125388968,odom,0.267475143758,0.0,0.0,0.0,0.0,0.0,1.0,1.44060468301e-05,0.0,0.0,0.0,0.0,0.0,0.0,1.44060468301e-05,0.0,0.0,0.0,0.0,0.0,0.0,3786000000.0,0.0,0.0,0.0,0.0,0.0,0.0,3786000000.0,0.0,0.0,0.0,0.0,0.0,0.0,3786000000.0,0.0,0.0,0.0,0.0,0.0,0.0,14.4057170036
1663722034237127510,3786,1663722034205367387,odom,0.307543593315,0.0,0.0,0.0,0.0,0.0,1.0,6.39643985778e-06,0.0,0.0,0.0,0.0,0.0,0.0,6.39643985778e-06,0.0,0.0,0.0,0.0,0.0,0.0,3787000000.0,0.0,0.0,0.0,0.0,0.0,0.0,3787000000.0,0.0,0.0,0.0,0.0,0.0,0.0,3787000000.0,0.0,0.0,0.0,0.0,0.0,0.0,6.39650659077
1663722034337144306,3787,1663722034325365645,odom,0.367722011068,0.0,0.0,0.0,0.0,0.0,1.0,1.43995275721e-05,0.0,0.0,0.0,0.0,0.0,0.0,1.43995275721e-05,0.0,0.0,0.0,0.0,0.0,0.0,3788000000.0,0.0,0.0,0.0,0.0,0.0,0.0,3788000000.0,0.0,0.0,0.0,0.0,0.0,0.0,3788000000.0,0.0,0.0,0.0,0.0,0.0,0.0,14.3993745793
1663722034437075142,3788,1663722034425513126,odom,0.417980748356,0.0,0.0,0.0,0.0,0.0,1.0,1.00295292214e-05,0.0,0.0,0.0,0.0,0.0,0.0,1.00295292214e-05,0.0,0.0,0.0,0.0,0.0,0.0,3789000000.0,0.0,0.0,0.0,0.0,0.0,0.0,3789000000.0,0.0,0.0,0.0,0.0,0.0,0.0,3789000000.0,0.0,0.0,0.0,0.0,0.0,0.0,10.0294173618
1663722034537130933,3789,1663722034505389405,odom,0.458078401388,0.0,0.0,0.0,0.0,0.0,1.0,6.38037454337e-06,0.0,0.0,0.0,0.0,0.0,0.0,6.38037454337e-06,0.0,0.0,0.0,0.0,0.0,0.0,3790000000.0,0.0,0.0,0.0,0.0,0.0,0.0,3790000000.0,0.0,0.0,0.0,0.0,0.0,0.0,3790000000.0,0.0,0.0,0.0,0.0,0.0,0.0,6.38017924025
1663722034637162426,3790,1663722034625387786,odom,0.518116972499,0.0,0.0,0.0,0.0,0.0,1.0,1.43997604027e-05,0.0,0.0,0.0,0.0,0.0,0.0,1.43997604027e-05,0.0,0.0,0.0,0.0,0.0,0.0,3791000000.0,0.0,0.0,0.0,0.0,0.0,0.0,3791000000.0,0.0,0.0,0.0,0.0,0.0,0.0,3791000000.0,0.0,0.0,0.0,0.0,0.0,0.0,14.399404098
1663722034737145198,3791,1663722034725358875,odom,0.568122130228,0.0,0.0,0.0,0.0,0.0,1.0,9.99425537884e-06,0.0,0.0,0.0,0.0,0.0,0.0,9.99425537884e-06,0.0,0.0,0.0,0.0,0.0,0.0,3792000000.0,0.0,0.0,0.0,0.0,0.0,0.0,3792000000.0,0.0,0.0,0.0,0.0,0.0,0.0,3792000000.0,0.0,0.0,0.0,0.0,0.0,0.0,9.99411875382
1663722034837137410,3792,1663722034805361230,odom,0.60826306031,0.0,0.0,0.0,0.0,0.0,1.0,6.4002815634e-06,0.0,0.0,0.0,0.0,0.0,0.0,6.4002815634e-06,0.0,0.0,0.0,0.0,0.0,0.0,3793000000.0,0.0,0.0,0.0,0.0,0.0,0.0,3793000000.0,0.0,0.0,0.0,0.0,0.0,0.0,3793000000.0,0.0,0.0,0.0,0.0,0.0,0.0,6.40033584158
1663722034937075978,3793,1663722034925359509,odom,0.668702172135,0.0,0.0,0.0,0.0,0.0,1.0,1.43997604027e-05,0.0,0.0,0.0,0.0,0.0,0.0,1.43997604027e-05,0.0,0.0,0.0,0.0,0.0,0.0,3794000000.0,0.0,0.0,0.0,0.0,0.0,0.0,3794000000.0,0.0,0.0,0.0,0.0,0.0,0.0,3794000000.0,0.0,0.0,0.0,0.0,0.0,0.0,14.3993796192
1663722035037079127,3794,1663722035025364687,odom,0.719145220025,0.0,0.0,0.0,0.0,0.0,1.0,1.00010074675e-05,0.0,0.0,0.0,0.0,0.0,0.0,1.00010074675e-05,0.0,0.0,0.0,0.0,0.0,0.0,3795000000.0,0.0,0.0,0.0,0.0,0.0,0.0,3795000000.0,0.0,0.0,0.0,0.0,0.0,0.0,3795000000.0,0.0,0.0,0.0,0.0,0.0,0.0,10.0009356088
1663722035137132760,3795,1663722035125357345,odom,0.769180940702,0.0,0.0,0.0,0.0,0.0,1.0,9.99856274575e-06,0.0,0.0,0.0,0.0,0.0,0.0,9.99856274575e-06,0.0,0.0,0.0,0.0,0.0,0.0,3796000000.0,0.0,0.0,0.0,0.0,0.0,0.0,3796000000.0,0.0,0.0,0.0,0.0,0.0,0.0,3796000000.0,0.0,0.0,0.0,0.0,0.0,0.0,9.99843168526
1663722035237148161,3796,1663722035207152482,odom,0.810222824781,0.0,0.0,0.0,0.0,0.0,1.0,6.69027213007e-06,0.0,0.0,0.0,0.0,0.0,0.0,6.69027213007e-06,0.0,0.0,0.0,0.0,0.0,0.0,3797000000.0,0.0,0.0,0.0,0.0,0.0,0.0,3797000000.0,0.0,0.0,0.0,0.0,0.0,0.0,3797000000.0,0.0,0.0,0.0,0.0,0.0,0.0,6.69039967563
1663722035337130551,3797,1663722035285358321,odom,0.849554425723,0.0,0.0,0.0,0.0,0.0,1.0,6.11611176282e-06,0.0,0.0,0.0,0.0,0.0,0.0,6.11611176282e-06,0.0,0.0,0.0,0.0,0.0,0.0,3798000000.0,0.0,0.0,0.0,0.0,0.0,0.0,3798000000.0,0.0,0.0,0.0,0.0,0.0,0.0,3798000000.0,0.0,0.0,0.0,0.0,0.0,0.0,6.11611584679
1663722035437038329,3798,1663722035426072493,odom,0.920271673116,0.0,0.0,0.0,0.0,0.0,1.0,1.98006164283e-05,0.0,0.0,0.0,0.0,0.0,0.0,1.98006164283e-05,0.0,0.0,0.0,0.0,0.0,0.0,3799000000.0,0.0,0.0,0.0,0.0,0.0,0.0,3799000000.0,0.0,0.0,0.0,0.0,0.0,0.0,3799000000.0,0.0,0.0,0.0,0.0,0.0,0.0,19.8000861529
1663722035537074370,3799,1663722035505362291,odom,0.960096313038,0.0,0.0,0.0,0.0,0.0,1.0,6.28700945526e-06,0.0,0.0,0.0,0.0,0.0,0.0,6.28700945526e-06,0.0,0.0,0.0,0.0,0.0,0.0,3800000000.0,0.0,0.0,0.0,0.0,0.0,0.0,3800000000.0,0.0,0.0,0.0,0.0,0.0,0.0,3800000000.0,0.0,0.0,0.0,0.0,0.0,0.0,6.28683254309
1663722035637811971,3800,1663722035585388153,odom,1.00006304442,0.0,0.0,0.0,0.0,0.0,1.0,6.40412326902e-06,0.0,0.0,0.0,0.0,0.0,0.0,6.40412326902e-06,0.0,0.0,0.0,0.0,0.0,0.0,3801000000.0,0.0,0.0,0.0,0.0,0.0,0.0,3801000000.0,0.0,0.0,0.0,0.0,0.0,0.0,3801000000.0,0.0,0.0,0.0,0.0,0.0,0.0,6.40409757639
1663722035737193113,3801,1663722035725365441,odom,1.07043095445,0.0,0.0,0.0,0.0,0.0,1.0,1.9593629986e-05,0.0,0.0,0.0,0.0,0.0,0.0,1.9593629986e-05,0.0,0.0,0.0,0.0,0.0,0.0,3802000000.0,0.0,0.0,0.0,0.0,0.0,0.0,3802000000.0,0.0,0.0,0.0,0.0,0.0,0.0,3802000000.0,0.0,0.0,0.0,0.0,0.0,0.0,19.5932572552
1663722035837214951,3802,1663722035805387674,odom,1.11048153338,0.0,0.0,0.0,0.0,0.0,1.0,6.40354119241e-06,0.0,0.0,0.0,0.0,0.0,0.0,6.40354119241e-06,0.0,0.0,0.0,0.0,0.0,0.0,3803000000.0,0.0,0.0,0.0,0.0,0.0,0.0,3803000000.0,0.0,0.0,0.0,0.0,0.0,0.0,3803000000.0,0.0,0.0,0.0,0.0,0.0,0.0,6.40351676976
1663722035937124688,3803,1663722035885358792,odom,1.15058564294,0.0,0.0,0.0,0.0,0.0,1.0,6.39527570456e-06,0.0,0.0,0.0,0.0,0.0,0.0,6.39527570456e-06,0.0,0.0,0.0,0.0,0.0,0.0,3804000000.0,0.0,0.0,0.0,0.0,0.0,0.0,3804000000.0,0.0,0.0,0.0,0.0,0.0,0.0,3804000000.0,0.0,0.0,0.0,0.0,0.0,0.0,6.39533881377
1663722036037162965,3804,1663722036025378512,odom,1.22109527234,0.0,0.0,0.0,0.0,0.0,1.0,1.96055043489e-05,0.0,0.0,0.0,0.0,0.0,0.0,1.96055043489e-05,0.0,0.0,0.0,0.0,0.0,0.0,3805000000.0,0.0,0.0,0.0,0.0,0.0,0.0,3805000000.0,0.0,0.0,0.0,0.0,0.0,0.0,3805000000.0,0.0,0.0,0.0,0.0,0.0,0.0,19.6051376224
1663722036137109457,3805,1663722036105358829,odom,1.26124530391,0.0,0.0,0.0,0.0,0.0,1.0,6.39702193439e-06,0.0,0.0,0.0,0.0,0.0,0.0,6.39702193439e-06,0.0,0.0,0.0,0.0,0.0,0.0,3806000000.0,0.0,0.0,0.0,0.0,0.0,0.0,3806000000.0,0.0,0.0,0.0,0.0,0.0,0.0,3806000000.0,0.0,0.0,0.0,0.0,0.0,0.0,6.39681018889
1663722036237122256,3806,1663722036225362142,odom,1.32116780091,0.0,0.0,0.0,0.0,0.0,1.0,1.44008081406e-05,0.0,0.0,0.0,0.0,0.0,0.0,1.44008081406e-05,0.0,0.0,0.0,0.0,0.0,0.0,3807000000.0,0.0,0.0,0.0,0.0,0.0,0.0,3807000000.0,0.0,0.0,0.0,0.0,0.0,0.0,3807000000.0,0.0,0.0,0.0,0.0,0.0,0.0,14.4005877525
1663722036337175248,3807,1663722036305361364,odom,1.36132638893,0.0,0.0,0.0,0.0,0.0,1.0,6.40004873276e-06,0.0,0.0,0.0,0.0,0.0,0.0,6.40004873276e-06,0.0,0.0,0.0,0.0,0.0,0.0,3808000000.0,0.0,0.0,0.0,0.0,0.0,0.0,3808000000.0,0.0,0.0,0.0,0.0,0.0,0.0,3808000000.0,0.0,0.0,0.0,0.0,0.0,0.0,6.39983456314
1663722036437110384,3808,1663722036425391964,odom,1.42171206329,0.0,0.0,0.0,0.0,0.0,1.0,1.44073273987e-05,0.0,0.0,0.0,0.0,0.0,0.0,1.44073273987e-05,0.0,0.0,0.0,0.0,0.0,0.0,3809000000.0,0.0,0.0,0.0,0.0,0.0,0.0,3809000000.0,0.0,0.0,0.0,0.0,0.0,0.0,3809000000.0,0.0,0.0,0.0,0.0,0.0,0.0,14.4071373693
1663722036537095723,3809,1663722036525364588,odom,1.47193764492,0.0,0.0,0.0,0.0,0.0,1.0,9.99448820949e-06,0.0,0.0,0.0,0.0,0.0,0.0,9.99448820949e-06,0.0,0.0,0.0,0.0,0.0,0.0,3810000000.0,0.0,0.0,0.0,0.0,0.0,0.0,3810000000.0,0.0,0.0,0.0,0.0,0.0,0.0,3810000000.0,0.0,0.0,0.0,0.0,0.0,0.0,9.9944256614
1663722036637120997,3810,1663722036605388244,odom,1.51206816762,0.0,0.0,0.0,0.0,0.0,1.0,6.40365760773e-06,0.0,0.0,0.0,0.0,0.0,0.0,6.40365760773e-06,0.0,0.0,0.0,0.0,0.0,0.0,3811000000.0,0.0,0.0,0.0,0.0,0.0,0.0,3811000000.0,0.0,0.0,0.0,0.0,0.0,0.0,3811000000.0,0.0,0.0,0.0,0.0,0.0,0.0,6.40374451177
1663722036737159626,3811,1663722036725395573,odom,1.57219142628,0.0,0.0,0.0,0.0,0.0,1.0,1.44016230479e-05,0.0,0.0,0.0,0.0,0.0,0.0,1.44016230479e-05,0.0,0.0,0.0,0.0,0.0,0.0,3812000000.0,0.0,0.0,0.0,0.0,0.0,0.0,3812000000.0,0.0,0.0,0.0,0.0,0.0,0.0,3812000000.0,0.0,0.0,0.0,0.0,0.0,0.0,14.4015516075
1663722036837106911,3812,1663722036825365496,odom,1.62227307386,0.0,0.0,0.0,0.0,0.0,1.0,9.9940225482e-06,0.0,0.0,0.0,0.0,0.0,0.0,9.9940225482e-06,0.0,0.0,0.0,0.0,0.0,0.0,3813000000.0,0.0,0.0,0.0,0.0,0.0,0.0,3813000000.0,0.0,0.0,0.0,0.0,0.0,0.0,3813000000.0,0.0,0.0,0.0,0.0,0.0,0.0,9.99388562737
1663722036937108244,3813,1663722036905391890,odom,1.66214624659,0.0,0.0,0.0,0.0,0.0,1.0,6.40423968434e-06,0.0,0.0,0.0,0.0,0.0,0.0,6.40423968434e-06,0.0,0.0,0.0,0.0,0.0,0.0,3814000000.0,0.0,0.0,0.0,0.0,0.0,0.0,3814000000.0,0.0,0.0,0.0,0.0,0.0,0.0,3814000000.0,0.0,0.0,0.0,0.0,0.0,0.0,6.40418272326
1663722037037120228,3814,1663722036985359809,odom,1.70239047913,0.0,0.0,0.0,0.0,0.0,1.0,6.3949264586e-06,0.0,0.0,0.0,0.0,0.0,0.0,6.3949264586e-06,0.0,0.0,0.0,0.0,0.0,0.0,3815000000.0,0.0,0.0,0.0,0.0,0.0,0.0,3815000000.0,0.0,0.0,0.0,0.0,0.0,0.0,3815000000.0,0.0,0.0,0.0,0.0,0.0,0.0,6.39482717554
1663722037137123966,3815,1663722037125372574,odom,1.77275704443,0.0,0.0,0.0,0.0,0.0,1.0,1.96035252884e-05,0.0,0.0,0.0,0.0,0.0,0.0,1.96035252884e-05,0.0,0.0,0.0,0.0,0.0,0.0,3816000000.0,0.0,0.0,0.0,0.0,0.0,0.0,3816000000.0,0.0,0.0,0.0,0.0,0.0,0.0,3816000000.0,0.0,0.0,0.0,0.0,0.0,0.0,19.6031900728
1663722037237170585,3816,1663722037205391011,odom,1.8128501922,0.0,0.0,0.0,0.0,0.0,1.0,6.4029591158e-06,0.0,0.0,0.0,0.0,0.0,0.0,6.4029591158e-06,0.0,0.0,0.0,0.0,0.0,0.0,3817000000.0,0.0,0.0,0.0,0.0,0.0,0.0,3817000000.0,0.0,0.0,0.0,0.0,0.0,0.0,3817000000.0,0.0,0.0,0.0,0.0,0.0,0.0,6.40290926315
1663722037337117655,3817,1663722037285359951,odom,1.85253479565,0.0,0.0,0.0,0.0,0.0,1.0,6.39515928924e-06,0.0,0.0,0.0,0.0,0.0,0.0,6.39515928924e-06,0.0,0.0,0.0,0.0,0.0,0.0,3818000000.0,0.0,0.0,0.0,0.0,0.0,0.0,3818000000.0,0.0,0.0,0.0,0.0,0.0,0.0,3818000000.0,0.0,0.0,0.0,0.0,0.0,0.0,6.39499046886
1663722037437135616,3818,1663722037425386956,odom,1.92322050971,0.0,0.0,0.0,0.0,0.0,1.0,1.96074834093e-05,0.0,0.0,0.0,0.0,0.0,0.0,1.96074834093e-05,0.0,0.0,0.0,0.0,0.0,0.0,3819000000.0,0.0,0.0,0.0,0.0,0.0,0.0,3819000000.0,0.0,0.0,0.0,0.0,0.0,0.0,3819000000.0,0.0,0.0,0.0,0.0,0.0,0.0,19.6071776829
1663722037539025962,3819,1663722037505386916,odom,1.96346083485,0.0,0.0,0.0,0.0,0.0,1.0,6.40004873276e-06,0.0,0.0,0.0,0.0,0.0,0.0,6.40004873276e-06,0.0,0.0,0.0,0.0,0.0,0.0,3820000000.0,0.0,0.0,0.0,0.0,0.0,0.0,3820000000.0,0.0,0.0,0.0,0.0,0.0,0.0,3820000000.0,0.0,0.0,0.0,0.0,0.0,0.0,6.39995264099
1663722037637136578,3820,1663722037585360056,odom,2.00338686303,0.0,0.0,0.0,0.0,0.0,1.0,6.39562495053e-06,0.0,0.0,0.0,0.0,0.0,0.0,6.39562495053e-06,0.0,0.0,0.0,0.0,0.0,0.0,3821000000.0,0.0,0.0,0.0,0.0,0.0,0.0,3821000000.0,0.0,0.0,0.0,0.0,0.0,0.0,3821000000.0,0.0,0.0,0.0,0.0,0.0,0.0,6.39566221694
1663722037737126309,3821,1663722037725361689,odom,2.07346255979,0.0,0.0,0.0,0.0,0.0,1.0,1.960049849e-05,0.0,0.0,0.0,0.0,0.0,0.0,1.960049849e-05,0.0,0.0,0.0,0.0,0.0,0.0,3822000000.0,0.0,0.0,0.0,0.0,0.0,0.0,3822000000.0,0.0,0.0,0.0,0.0,0.0,0.0,3822000000.0,0.0,0.0,0.0,0.0,0.0,0.0,19.6000730748
1663722037837940967,3822,1663722037805361357,odom,2.1133408012,0.0,0.0,0.0,0.0,0.0,1.0,6.39993231744e-06,0.0,0.0,0.0,0.0,0.0,0.0,6.39993231744e-06,0.0,0.0,0.0,0.0,0.0,0.0,3823000000.0,0.0,0.0,0.0,0.0,0.0,0.0,3823000000.0,0.0,0.0,0.0,0.0,0.0,0.0,3823000000.0,0.0,0.0,0.0,0.0,0.0,0.0,6.39990592177
1663722037937116391,3823,1663722037885360901,odom,2.15348036411,0.0,0.0,0.0,0.0,0.0,1.0,6.39993231744e-06,0.0,0.0,0.0,0.0,0.0,0.0,6.39993231744e-06,0.0,0.0,0.0,0.0,0.0,0.0,3824000000.0,0.0,0.0,0.0,0.0,0.0,0.0,3824000000.0,0.0,0.0,0.0,0.0,0.0,0.0,3824000000.0,0.0,0.0,0.0,0.0,0.0,0.0,6.39988608158
1663722038037168501,3824,1663722038025359276,odom,2.22389980006,0.0,0.0,0.0,0.0,0.0,1.0,1.95995671675e-05,0.0,0.0,0.0,0.0,0.0,0.0,1.95995671675e-05,0.0,0.0,0.0,0.0,0.0,0.0,3825000000.0,0.0,0.0,0.0,0.0,0.0,0.0,3825000000.0,0.0,0.0,0.0,0.0,0.0,0.0,3825000000.0,0.0,0.0,0.0,0.0,0.0,0.0,19.5991608707
1663722038137143392,3825,1663722038105362399,odom,2.26406020638,0.0,0.0,0.0,0.0,0.0,1.0,6.40051439404e-06,0.0,0.0,0.0,0.0,0.0,0.0,6.40051439404e-06,0.0,0.0,0.0,0.0,0.0,0.0,3826000000.0,0.0,0.0,0.0,0.0,0.0,0.0,3826000000.0,0.0,0.0,0.0,0.0,0.0,0.0,3826000000.0,0.0,0.0,0.0,0.0,0.0,0.0,6.40045872447
1663722038237087627,3826,1663722038185363009,odom,2.30410010797,0.0,0.0,0.0,0.0,0.0,1.0,6.40004873276e-06,0.0,0.0,0.0,0.0,0.0,0.0,6.40004873276e-06,0.0,0.0,0.0,0.0,0.0,0.0,3827000000.0,0.0,0.0,0.0,0.0,0.0,0.0,3827000000.0,0.0,0.0,0.0,0.0,0.0,0.0,3827000000.0,0.0,0.0,0.0,0.0,0.0,0.0,6.4000566398
1663722038337086305,3827,1663722038325387504,odom,2.37456892616,0.0,0.0,0.0,0.0,0.0,1.0,1.96069013327e-05,0.0,0.0,0.0,0.0,0.0,0.0,1.96069013327e-05,0.0,0.0,0.0,0.0,0.0,0.0,3828000000.0,0.0,0.0,0.0,0.0,0.0,0.0,3828000000.0,0.0,0.0,0.0,0.0,0.0,0.0,3828000000.0,0.0,0.0,0.0,0.0,0.0,0.0,19.6064747812
1663722038437255857,3828,1663722038405393074,odom,2.41487192064,0.0,0.0,0.0,0.0,0.0,1.0,6.40086364001e-06,0.0,0.0,0.0,0.0,0.0,0.0,6.40086364001e-06,0.0,0.0,0.0,0.0,0.0,0.0,3829000000.0,0.0,0.0,0.0,0.0,0.0,0.0,3829000000.0,0.0,0.0,0.0,0.0,0.0,0.0,3829000000.0,0.0,0.0,0.0,0.0,0.0,0.0,6.40085026075
1663722038537175632,3829,1663722038485362252,odom,2.45481541141,0.0,0.0,0.0,0.0,0.0,1.0,6.39515928924e-06,0.0,0.0,0.0,0.0,0.0,0.0,6.39515928924e-06,0.0,0.0,0.0,0.0,0.0,0.0,3830000000.0,0.0,0.0,0.0,0.0,0.0,0.0,3830000000.0,0.0,0.0,0.0,0.0,0.0,0.0,3830000000.0,0.0,0.0,0.0,0.0,0.0,0.0,6.39502853353
1663722038637277040,3830,1663722038625379271,odom,2.52497773447,0.0,0.0,0.0,0.0,0.0,1.0,1.96048058569e-05,0.0,0.0,0.0,0.0,0.0,0.0,1.96048058569e-05,0.0,0.0,0.0,0.0,0.0,0.0,3831000000.0,0.0,0.0,0.0,0.0,0.0,0.0,3831000000.0,0.0,0.0,0.0,0.0,0.0,0.0,3831000000.0,0.0,0.0,0.0,0.0,0.0,0.0,19.6043812728
1663722038739401653,3831,1663722038705387309,odom,2.56522216643,0.0,0.0,0.0,0.0,0.0,1.0,6.4013293013e-06,0.0,0.0,0.0,0.0,0.0,0.0,6.4013293013e-06,0.0,0.0,0.0,0.0,0.0,0.0,3832000000.0,0.0,0.0,0.0,0.0,0.0,0.0,3832000000.0,0.0,0.0,0.0,0.0,0.0,0.0,3832000000.0,0.0,0.0,0.0,0.0,0.0,0.0,6.40124516923
1663722038837101881,3832,1663722038785378479,odom,2.60535704992,0.0,0.0,0.0,0.0,0.0,1.0,6.39841891825e-06,0.0,0.0,0.0,0.0,0.0,0.0,6.39841891825e-06,0.0,0.0,0.0,0.0,0.0,0.0,3833000000.0,0.0,0.0,0.0,0.0,0.0,0.0,3833000000.0,0.0,0.0,0.0,0.0,0.0,0.0,3833000000.0,0.0,0.0,0.0,0.0,0.0,0.0,6.39854633645
1663722038937044375,3833,1663722038925388582,odom,2.6752779325,0.0,0.0,0.0,0.0,0.0,1.0,1.96027103812e-05,0.0,0.0,0.0,0.0,0.0,0.0,1.96027103812e-05,0.0,0.0,0.0,0.0,0.0,0.0,3834000000.0,0.0,0.0,0.0,0.0,0.0,0.0,3834000000.0,0.0,0.0,0.0,0.0,0.0,0.0,3834000000.0,0.0,0.0,0.0,0.0,0.0,0.0,19.6024446811
1663722039037348665,3834,1663722039005384468,odom,2.70861345133,0.0,0.0,0.0,0.0,0.0,1.0,6.39935024083e-06,0.0,0.0,0.0,0.0,0.0,0.0,6.39935024083e-06,0.0,0.0,0.0,0.0,0.0,0.0,3835000000.0,0.0,0.0,0.0,0.0,0.0,0.0,3835000000.0,0.0,0.0,0.0,0.0,0.0,0.0,3835000000.0,0.0,0.0,0.0,0.0,0.0,0.0,6.39930082648
1663722039137122151,3835,1663722039085389424,odom,2.73041410322,0.0,0.0,0.0,0.0,0.0,1.0,6.40086364001e-06,0.0,0.0,0.0,0.0,0.0,0.0,6.40086364001e-06,0.0,0.0,0.0,0.0,0.0,0.0,3836000000.0,0.0,0.0,0.0,0.0,0.0,0.0,3836000000.0,0.0,0.0,0.0,0.0,0.0,0.0,3836000000.0,0.0,0.0,0.0,0.0,0.0,0.0,6.40075201506
1663722039237140235,3836,1663722039225360201,odom,2.7388653867,0.0,0.0,0.0,0.0,0.0,1.0,1.95918837562e-05,0.0,0.0,0.0,0.0,0.0,0.0,1.95918837562e-05,0.0,0.0,0.0,0.0,0.0,0.0,3837000000.0,0.0,0.0,0.0,0.0,0.0,0.0,3837000000.0,0.0,0.0,0.0,0.0,0.0,0.0,3837000000.0,0.0,0.0,0.0,0.0,0.0,0.0,19.5914345846
1663722039337150309,3837,1663722039305386838,odom,2.73741982271,0.0,0.0,0.0,0.0,0.0,1.0,6.40423968434e-06,0.0,0.0,0.0,0.0,0.0,0.0,6.40423968434e-06,0.0,0.0,0.0,0.0,0.0,0.0,3838000000.0,0.0,0.0,0.0,0.0,0.0,0.0,3838000000.0,0.0,0.0,0.0,0.0,0.0,0.0,3838000000.0,0.0,0.0,0.0,0.0,0.0,0.0,6.40422161587
1663722039437118833,3838,1663722039405359922,odom,2.73685801224,0.0,0.0,0.0,0.0,0.0,1.0,9.99460462481e-06,0.0,0.0,0.0,0.0,0.0,0.0,9.99460462481e-06,0.0,0.0,0.0,0.0,0.0,0.0,3839000000.0,0.0,0.0,0.0,0.0,0.0,0.0,3839000000.0,0.0,0.0,0.0,0.0,0.0,0.0,3839000000.0,0.0,0.0,0.0,0.0,0.0,0.0,9.99451763369
1663722039537052814,3839,1663722039525386813,odom,2.7366376831,0.0,0.0,0.0,0.0,0.0,1.0,1.44066289067e-05,0.0,0.0,0.0,0.0,0.0,0.0,1.44066289067e-05,0.0,0.0,0.0,0.0,0.0,0.0,3840000000.0,0.0,0.0,0.0,0.0,0.0,0.0,3840000000.0,0.0,0.0,0.0,0.0,0.0,0.0,3840000000.0,0.0,0.0,0.0,0.0,0.0,0.0,14.4062470223
1663722039637097502,3840,1663722039605396216,odom,2.7367387982,0.0,0.0,0.0,0.0,0.0,1.0,6.40167854726e-06,0.0,0.0,0.0,0.0,0.0,0.0,6.40167854726e-06,0.0,0.0,0.0,0.0,0.0,0.0,3841000000.0,0.0,0.0,0.0,0.0,0.0,0.0,3841000000.0,0.0,0.0,0.0,0.0,0.0,0.0,3841000000.0,0.0,0.0,0.0,0.0,0.0,0.0,6.4014635901
1663722039737205137,3841,1663722039705361100,odom,2.73679932061,0.0,0.0,0.0,0.0,0.0,1.0,9.99285839498e-06,0.0,0.0,0.0,0.0,0.0,0.0,9.99285839498e-06,0.0,0.0,0.0,0.0,0.0,0.0,3842000000.0,0.0,0.0,0.0,0.0,0.0,0.0,3842000000.0,0.0,0.0,0.0,0.0,0.0,0.0,3842000000.0,0.0,0.0,0.0,0.0,0.0,0.0,9.99287817522
1663722039837201094,3842,1663722039825359535,odom,2.73679932061,0.0,0.0,0.0,0.0,0.0,1.0,1.43996439874e-05,0.0,0.0,0.0,0.0,0.0,0.0,1.43996439874e-05,0.0,0.0,0.0,0.0,0.0,0.0,3843000000.0,0.0,0.0,0.0,0.0,0.0,0.0,3843000000.0,0.0,0.0,0.0,0.0,0.0,0.0,3843000000.0,0.0,0.0,0.0,0.0,0.0,0.0,14.3994170583
1663722039937066548,3843,1663722039905360761,odom,2.73679932061,0.0,0.0,0.0,0.0,0.0,1.0,6.40004873276e-06,0.0,0.0,0.0,0.0,0.0,0.0,6.40004873276e-06,0.0,0.0,0.0,0.0,0.0,0.0,3844000000.0,0.0,0.0,0.0,0.0,0.0,0.0,3844000000.0,0.0,0.0,0.0,0.0,0.0,0.0,3844000000.0,0.0,0.0,0.0,0.0,0.0,0.0,6.40015519969
1663722040037061535,3844,1663722040025386875,odom,2.73679932061,0.0,0.0,0.0,0.0,0.0,1.0,1.44062796608e-05,0.0,0.0,0.0,0.0,0.0,0.0,1.44062796608e-05,0.0,0.0,0.0,0.0,0.0,0.0,3845000000.0,0.0,0.0,0.0,0.0,0.0,0.0,3845000000.0,0.0,0.0,0.0,0.0,0.0,0.0,3845000000.0,0.0,0.0,0.0,0.0,0.0,0.0,14.4060605055
1663722040137090710,3845,1663722040125367635,odom,2.73679932061,0.0,0.0,0.0,0.0,0.0,1.0,9.99611802399e-06,0.0,0.0,0.0,0.0,0.0,0.0,9.99611802399e-06,0.0,0.0,0.0,0.0,0.0,0.0,3846000000.0,0.0,0.0,0.0,0.0,0.0,0.0,3846000000.0,0.0,0.0,0.0,0.0,0.0,0.0,3846000000.0,0.0,0.0,0.0,0.0,0.0,0.0,9.99605244945
1663722040237106983,3846,1663722040225756200,odom,2.73679932061,0.0,0.0,0.0,0.0,0.0,1.0,1.00777251646e-05,0.0,0.0,0.0,0.0,0.0,0.0,1.00777251646e-05,0.0,0.0,0.0,0.0,0.0,0.0,3847000000.0,0.0,0.0,0.0,0.0,0.0,0.0,3847000000.0,0.0,0.0,0.0,0.0,0.0,0.0,3847000000.0,0.0,0.0,0.0,0.0,0.0,0.0,10.0777624216
1663722040337040374,3847,1663722040305358384,odom,2.73679932061,0.0,0.0,0.0,0.0,0.0,1.0,6.33660238236e-06,0.0,0.0,0.0,0.0,0.0,0.0,6.33660238236e-06,0.0,0.0,0.0,0.0,0.0,0.0,3848000000.0,0.0,0.0,0.0,0.0,0.0,0.0,3848000000.0,0.0,0.0,0.0,0.0,0.0,0.0,3848000000.0,0.0,0.0,0.0,0.0,0.0,0.0,6.33646754688
1663722040437113471,3848,1663722040385359893,odom,2.73679932061,0.0,0.0,0.0,0.0,0.0,1.0,6.4002815634e-06,0.0,0.0,0.0,0.0,0.0,0.0,6.4002815634e-06,0.0,0.0,0.0,0.0,0.0,0.0,3849000000.0,0.0,0.0,0.0,0.0,0.0,0.0,3849000000.0,0.0,0.0,0.0,0.0,0.0,0.0,3849000000.0,0.0,0.0,0.0,0.0,0.0,0.0,6.40020047966
1663722040537324002,3849,1663722040525387092,odom,2.73679932061,0.0,0.0,0.0,0.0,0.0,1.0,1.96075998247e-05,0.0,0.0,0.0,0.0,0.0,0.0,1.96075998247e-05,0.0,0.0,0.0,0.0,0.0,0.0,3850000000.0,0.0,0.0,0.0,0.0,0.0,0.0,3850000000.0,0.0,0.0,0.0,0.0,0.0,0.0,3850000000.0,0.0,0.0,0.0,0.0,0.0,0.0,19.6072320113
1663722040637115451,3850,1663722040605360572,odom,2.73679932061,0.0,0.0,0.0,0.0,0.0,1.0,6.39574136585e-06,0.0,0.0,0.0,0.0,0.0,0.0,6.39574136585e-06,0.0,0.0,0.0,0.0,0.0,0.0,3851000000.0,0.0,0.0,0.0,0.0,0.0,0.0,3851000000.0,0.0,0.0,0.0,0.0,0.0,0.0,3851000000.0,0.0,0.0,0.0,0.0,0.0,0.0,6.39571659872
1663722040737096171,3851,1663722040685397306,odom,2.73679932061,0.0,0.0,0.0,0.0,0.0,1.0,6.40598591417e-06,0.0,0.0,0.0,0.0,0.0,0.0,6.40598591417e-06,0.0,0.0,0.0,0.0,0.0,0.0,3852000000.0,0.0,0.0,0.0,0.0,0.0,0.0,3852000000.0,0.0,0.0,0.0,0.0,0.0,0.0,3852000000.0,0.0,0.0,0.0,0.0,0.0,0.0,6.4058377546
1663722040837083126,3852,1663722040825465459,odom,2.73679932061,0.0,0.0,0.0,0.0,0.0,1.0,1.96192413568e-05,0.0,0.0,0.0,0.0,0.0,0.0,1.96192413568e-05,0.0,0.0,0.0,0.0,0.0,0.0,3853000000.0,0.0,0.0,0.0,0.0,0.0,0.0,3853000000.0,0.0,0.0,0.0,0.0,0.0,0.0,3853000000.0,0.0,0.0,0.0,0.0,0.0,0.0,19.6187025862
1663722040937079452,3853,1663722040905360122,odom,2.73679932061,0.0,0.0,0.0,0.0,0.0,1.0,6.38328492641e-06,0.0,0.0,0.0,0.0,0.0,0.0,6.38328492641e-06,0.0,0.0,0.0,0.0,0.0,0.0,3854000000.0,0.0,0.0,0.0,0.0,0.0,0.0,3854000000.0,0.0,0.0,0.0,0.0,0.0,0.0,3854000000.0,0.0,0.0,0.0,0.0,0.0,0.0,6.38311643223
1663722041037037032,3854,1663722040985389694,odom,2.73679932061,0.0,0.0,0.0,0.0,0.0,1.0,6.40470534563e-06,0.0,0.0,0.0,0.0,0.0,0.0,6.40470534563e-06,0.0,0.0,0.0,0.0,0.0,0.0,3855000000.0,0.0,0.0,0.0,0.0,0.0,0.0,3855000000.0,0.0,0.0,0.0,0.0,0.0,0.0,3855000000.0,0.0,0.0,0.0,0.0,0.0,0.0,6.40469137451
1663722041137291233,3855,1663722041125389993,odom,2.73679932061,0.0,0.0,0.0,0.0,0.0,1.0,1.96001492441e-05,0.0,0.0,0.0,0.0,0.0,0.0,1.96001492441e-05,0.0,0.0,0.0,0.0,0.0,0.0,3856000000.0,0.0,0.0,0.0,0.0,0.0,0.0,3856000000.0,0.0,0.0,0.0,0.0,0.0,0.0,3856000000.0,0.0,0.0,0.0,0.0,0.0,0.0,19.5996995668
1663722041237104615,3856,1663722041205386615,odom,2.73679932061,0.0,0.0,0.0,0.0,0.0,1.0,6.39958307147e-06,0.0,0.0,0.0,0.0,0.0,0.0,6.39958307147e-06,0.0,0.0,0.0,0.0,0.0,0.0,3857000000.0,0.0,0.0,0.0,0.0,0.0,0.0,3857000000.0,0.0,0.0,0.0,0.0,0.0,0.0,3857000000.0,0.0,0.0,0.0,0.0,0.0,0.0,6.39941857941
1663722041337079581,3857,1663722041285357978,odom,2.73679932061,0.0,0.0,0.0,0.0,0.0,1.0,6.39527570456e-06,0.0,0.0,0.0,0.0,0.0,0.0,6.39527570456e-06,0.0,0.0,0.0,0.0,0.0,0.0,3858000000.0,0.0,0.0,0.0,0.0,0.0,0.0,3858000000.0,0.0,0.0,0.0,0.0,0.0,0.0,3858000000.0,0.0,0.0,0.0,0.0,0.0,0.0,6.39537799929
1663722041437167449,3858,1663722041425359226,odom,2.73679932061,0.0,0.0,0.0,0.0,0.0,1.0,1.96003820747e-05,0.0,0.0,0.0,0.0,0.0,0.0,1.96003820747e-05,0.0,0.0,0.0,0.0,0.0,0.0,3859000000.0,0.0,0.0,0.0,0.0,0.0,0.0,3859000000.0,0.0,0.0,0.0,0.0,0.0,0.0,3859000000.0,0.0,0.0,0.0,0.0,0.0,0.0,19.5999652778
1663722041537125913,3859,1663722041505387941,odom,2.73679932061,0.0,0.0,0.0,0.0,0.0,1.0,6.40470534563e-06,0.0,0.0,0.0,0.0,0.0,0.0,6.40470534563e-06,0.0,0.0,0.0,0.0,0.0,0.0,3860000000.0,0.0,0.0,0.0,0.0,0.0,0.0,3860000000.0,0.0,0.0,0.0,0.0,0.0,0.0,3860000000.0,0.0,0.0,0.0,0.0,0.0,0.0,6.40455420676
